school_id,school_name,coordinates_lat,coordinates_lon
200098,"Escola Básica de A-das-Lebres, Loures",38.852917,-9.1672815
200116,"Escola Básica de A-dos-Bispos, Vila Franca de Xira",38.9525268,-9.0136425
200578,"Escola Básica de Foros da Craveira do Norte, Afonsos, Montijo",38.7043344,-8.954516
200840,"Escola Básica de Aiana de Cima, Sesimbra",38.4741841,-9.1409223
201698,"Escola Básica de Aldeia do Meco, Sesimbra",38.4711464,-9.1697323
202241,"Escola Básica de Algeruz-Lau, Palmela",38.6034019,-8.817577100000001
202332,"Escola Básica de Algueirão, Sintra",38.8048959,-9.339326999999999
202940,"Escola Básica do Alto da Guerra, Setúbal",38.5272041,-8.8852592
203993,"Escola Básica n.º 1 de Apelação, Loures",38.81698189999999,-9.1363605
204067,"Escola Básica de Arcena, Vila Franca de Xira",38.95461,-9.0000479
205357,"Escola Básica de Novos Trilhos, Atalaia, Montijo",38.7084754,-8.9222831
205977,"Escola Básica de Azoia, Sesimbra",38.4301517,-9.1894726
206246,"Escola Básica do Bairro Alentejano, Palmela",38.56947359999999,-8.8988438
206635,"Escola Básica de Barra Cheia, Moita",38.6083264,-9.0012382
207287,"Escola Básica de Batudes, Palmela",38.6001768,-8.897217699999999
208942,"Jardim de Infância de Brejos, Moita",38.6431427,-8.9918692
208966,"Escola Básica de Brejos do Clérigo, Setúbal",38.5455844,-9.017265499999999
209788,"Escola Básica do Cabo, Vialonga, Vila Franca de Xira",38.87598570000001,-9.072220699999999
210031,"Escola Básica do Cataventos da Paz, Cacilhas, Almada",38.6794817,-9.151187
210195,"Escola Básica de Cajados, Palmela",38.5783043,-8.7644253
212672,"Jardim de Infância do Carvalhinho, Moita",38.64589,-8.9885436
213640,"Jardim de Infância do Casal de Bolinhos, Brejos de Azeitão, Setúbal",38.5389553,-9.0290912
213822,"Escola Básica do Casal do Marco, Seixal",38.6091276,-9.0912357
214255,"Escola Básica de Casaínhos, Loures",38.8275565,-9.174995599999999
214383,"Escola Básica da Quinta de São Sebastião, Castanheira do Ribatejo, Vila Franca de Xira",38.9962657,-8.9736415
216010,"Escola Básica de Chão Duro, Moita",38.6661689,-8.9850684
216770,Centro Educativo Navarro Paiva,38.7422399,-9.1747315
217785,"Escola Básica de Cotovios, Vila Franca de Xira",38.9565377,-9.0395749
219915,"Escola Básica da Freguesia da Encarnação, Encarnação, Mafra",39.0222287,-9.370209
220085,"Escola Básica da Ericeira, Mafra",38.9664255,-9.4058495
221028,"Escola Básica Fausto Cardoso de Figueiredo, Estoril, Cascais",38.7095496,-9.3960072
221363,"Escola Básica de Faião, Sintra",38.8729404,-9.357479699999999
221508,"Escola Básica de Fanhões, Loures",38.88048209999999,-9.1552151
222963,"Escola Básica do Casal do Sapo (Fontainhas), Sesimbra",38.5550489,-9.0812816
223190,"Jardim de Infância de Fonte do Feto, Barreiro",38.6179806,-9.017718499999999
223300,"Escola Básica da Fonte Santa, Almada",38.6678121,-9.2032992
223906,"Escola Básica de Foros do Trapo, Montijo",38.7081178,-8.9563325
224560,"Escola Básica de Frielas, Loures",38.8252083,-9.143280299999999
226440,"Escola Básica de Gâmbia, Setúbal",38.5576766,-8.766790400000001
226579,"Escola Básica da Lançada, Hortinha, Montijo",38.7081178,-8.9563325
228138,"Escola Básica de Jardia, Montijo",38.6649888,-8.924956400000001
228527,"Jardim de Infância de Lagameças, Palmela",38.6135078,-8.7805319
228801,"Escola Básica da Freguesia de Santo Isidoro, Lagoa, Mafra",39.00861889999999,-9.387689499999999
228813,"Escola Básica da Lagoa da Palha, Palmela",38.6368029,-8.878065399999999
229337,"Escola Básica da Freguesia da Carvoeira, Fonte Boa da Brincosa, Mafra",38.9523568,-9.4027543
231174,"Escola Básica da Malveira da Serra, Cascais",38.7536095,-9.4468667
231230,"Escola Básica de Manique, Cascais",38.7349152,-9.368175599999999
231253,"Escola Básica da Manjoeira, Loures",38.8632809,-9.1589803
231277,"Escola Básica de Manteigadas, Setúbal",38.52353129999999,-8.850959
231370,"Escola Básica de Marco Cabaço, Charneca de Caparica, Almada",38.6203107,-9.1931104
234126,"Escola Básica Raul Lino, Cascais",38.7120194,-9.4081469
234291,"Escola Básica de Montelavar, Sintra",38.862488,-9.3319066
234515,"Escola Básica de Montinho da Cotovia, Pontes, Setúbal",38.5453042,-8.8174428
235222,"Escola Básica Samuel Johnson, Murganhal, Oeiras",38.7129234,-9.2719895
235301,"Escola Básica da Murteira, Loures",38.8639164,-9.1927607
236202,"Escola Básica Padre Andrade, Cascais",38.7251445,-9.333070099999999
236238,"Escola Básica da Quinta da Fidalga, Agualva, Sintra",38.7746875,-9.2979758
236287,"Jardim de Infância Cesaltina Fialho Gouveia, Alcabideche, Cascais",38.73468889999999,-9.3912552
236330,"Escola Básica Bruno Nascimento, Alcoitão, Cascais",38.7331508,-9.394227599999999
236354,"Escola Básica n.º 1 de Aldeia do Juso, Cascais",38.729726,-9.4473875
236408,"Escola Básica de Alfeite, Almada",38.6610874,-9.154780800000001
236421,"Escola Básica de Alfragide, Amadora",38.734407,-9.2172114
236445,"Escola Básica do Alto de Algés, Oeiras",38.7087524,-9.2339159
236469,"Escola Básica n.º 1 de Alhos Vedros, Moita",38.6576279,-9.025278499999999
236512,"Escola Básica de Alpriate, Vila Franca de Xira",38.8643177,-9.0932128
236585,"Escola Básica n.º 1 de Alverca do Ribatejo, Vila Franca de Xira",38.9146362,-9.026513999999999
236615,"Escola Básica de Amora, Seixal",38.6288874,-9.116960899999999
236627,"Escola Básica Fernando José dos Santos, Cascais",38.7186893,-9.4104403
236720,"Escola Básica de Arrentela, Seixal",38.6242989,-9.103019100000001
236755,"Jardim de Infância de Arroteias, Moita",38.64589,-8.9885436
236913,"Escola Básica n.º 4 da Baixa da Banheira, Moita",38.656108,-9.0414811
237036,"Escola Básica da Bemposta, Loures",38.8275565,-9.174995599999999
237061,"Escola Básica Almada Negreiros, Cascais",38.72892849999999,-9.383293799999999
237085,"Escola Básica n.º 1 da Bobadela, Loures",38.8081863,-9.099984599999999
237188,"Escola Básica Sacadura Cabral, Brandoa, Amadora",38.7644171,-9.214738299999999
237190,"Escola Básica n.º 1 de Brejos do Assa, Palmela",38.5694206,-8.8348959
237218,"Escola Básica Alice Vieira, Buraca, Amadora",38.7418966,-9.210440900000002
237280,"Escola Básica n.º 1 do Cacém, Sintra",38.7666264,-9.3042299
237358,"Escola Básica n.º 1 de Camarate, Loures",38.7994383,-9.134915399999999
237437,"Escola Básica Francisco Vieira Caldas, Caneças, Odivelas",38.81318539999999,-9.228493199999999
237474,"Escola Básica n.º 1 de Carcavelos, Cascais",38.6903976,-9.3324483
237498,"Escola Básica Sylvia Philips, Carnaxide, Oeiras",38.7278042,-9.242513899999999
237644,"Escola Básica José Jorge Letria, Cascais",38.6987383,-9.4253428
237917,"Escola Básica de Coina, Barreiro",38.6545543,-9.0690324
237978,"Escola Básica n.º 1 de Corroios, Seixal",38.6429842,-9.1551297
238028,"Escola Básica n.º 2 da Costa da Caparica, Almada",38.6714085,-9.1637486
238193,"Escola Básica Padre Himalaia, Damaia, Amadora",38.7454734,-9.2209343
238284,"Escola Básica São Miguel, Enxara do Bispo, Mafra",38.9874448,-9.243670600000002
238405,"Escola Básica Artur Bual, Falagueira, Amadora",38.7609866,-9.2280842
238417,"Escola Básica da Quinta das Dálias, Famões, Odivelas",38.792057,-9.2015308
238429,"Escola Básica n.º 1 do Faralhão, Setúbal",38.5212706,-8.8264164
238478,"Escola Básica n.º 1 do Feijó, Almada",38.6533331,-9.174163499999999
238510,"Escola Básica de Fernão Ferro, Seixal",38.5670486,-9.1017267
238570,"Escola Básica do Fogueteiro, Seixal",38.6146597,-9.1106564
238612,"Escola Básica de Craveira do Norte, Montijo",38.6792263,-8.588307499999999
238624,"Escola Básica da Quinta de Santo António, Cruz de Pau, Seixal",38.618645,-9.1244281
238739,"Escola Básica n.º 1 de Galiza, Cascais",38.7054553,-9.3835596
239331,"Escola Básica Cesário Verde, Linda-a-Pastora, Oeiras",38.7184074,-9.2550618
239343,"Escola Básica Armando Guerreiro, Linda-a-Velha, Oeiras",38.7116049,-9.2397771
239355,"Escola Básica n.º 1 do Linhó, Sintra",38.7696382,-9.3817246
239367,Escola Básica n.º 1 de Lisboa,38.7202366,-9.1382985
239446,Escola Básica de Loures,38.8275565,-9.174995599999999
239460,"Escola Básica de Lousa, Loures",38.89136690000001,-9.2092048
239495,"Escola Básica Hélia Correia, Mafra",38.9434418,-9.3377982
239598,"Escola Básica n.º 1 de Mem Martins, Sintra",38.7862737,-9.3482916
239641,"Escola Básica da Mina, Amadora",38.7589152,-9.2300218
239690,"Escola Básica de Miratejo, Seixal",38.6513146,-9.1412914
239719,Escola Básica n.º 1 da Moita,38.6548966,-8.9920651
239811,"Escola Básica n.º 3 de Monte da Caparica, Almada",38.6636206,-9.196711299999999
239823,"Escola Básica de Montemor, Loures",38.8199837,-9.1989542
239860,"Escola Básica n.º 1 de Morelena, Sintra",38.8446954,-9.3163241
239872,"Escola Básica Dr. Catela Gomes, Moscavide, Loures",38.8434586,-9.1602558
239938,"Escola Básica de Murtal, Cascais",38.7065212,-9.3616785
239987,"Escola Básica Maria Lamas, Odivelas",38.78806160000001,-9.1814284
239999,"Escola Básica Conde de Ferreira, Oeiras",38.68897279999999,-9.3123304
240205,"Escola Básica de Aldeia de Paio Pires, Seixal",38.627182,-9.0864354
240369,"Escola Básica Dionísio dos Santos Matias, Paço de Arcos, Oeiras",38.6950098,-9.2948945
240515,"Escola Básica António Santos Jorge, Pinhal Novo, Palmela",38.6336748,-8.915625499999999
240620,"Escola Básica Dr. Mário Madeira, Pontinha, Odivelas",38.768776,-9.1967304
240692,"Escola Básica do Pragal, Almada",38.6725887,-9.170891
240783,"Escola Básica n.º 1 da Póvoa de Santa Iria, Vila Franca de Xira",38.8609453,-9.0663381
240898,"Jardim de Infância de Azenha, Ramada, Odivelas",38.8014449,-9.1911522
240928,"Escola Básica Gago Coutinho, Reboleira, Amadora",38.7562798,-9.2338942
241143,"Escola Básica n.º 1 de São Domingos de Rana, Cascais",38.700874,-9.3416561
241179,"Escola Básica n.º 1 de São João da Talha, Loures",38.8238381,-9.096067699999999
241283,"Escola Básica de Sacavém, Loures",38.792375,-9.1048545
241453,"Escola Básica de Sarilhos Grandes, Montijo",38.681428,-8.9639554
241568,Escola Básica n.º 1 de Setúbal,38.523909,-8.8813781
241726,"Escola Básica de Bela Vista, Santa Iria de Azoia, Loures",38.8460536,-9.084782299999999
241751,"Escola Básica de Santo Antão do Tojal, Loures",38.8538698,-9.1435133
241891,"Escola Básica n.º 1 da Terrugem, Sintra",38.8493124,-9.377628399999999
241908,"Escola Básica António Torrado, Tires, Cascais",38.7136876,-9.3486663
241910,"Escola Básica do Tojalinho, Loures",38.8275565,-9.174995599999999
241945,"Escola Básica da Torre da Marinha, Seixal",38.6161149,-9.1040292
241970,"Escola Básica n.º 1 da Trafaria, Almada",38.6698859,-9.238283
242081,"Escola Básica da Quinta da Paiã, Pontinha, Odivelas",38.7788716,-9.195966499999999
242111,"Escola Básica Álvaro Guerra, Vila Franca de Xira",38.9570512,-8.9891539
242160,"Escola Básica Miquelina Pombo, Almada",38.6391378,-9.177285399999999
242196,"Jardim de Infância de Vale de Milhaços, Seixal",38.6245886,-9.160818899999999
242287,"Escola Básica da Venteira, Amadora",38.757643,-9.244887
242317,"Escola Básica n.º 1 de Vialonga, Vila Franca de Xira",38.87598570000001,-9.072220699999999
242550,"Escola Básica n.º 1 do Zambujal, Sesimbra",38.4524155,-9.1280618
242573,"Escola Básica n.º 1 de Águas de Moura, Palmela",38.5719729,-8.9023577
242690,"Escola Básica do Castelo, Lisboa",38.7131919,-9.1328389
242706,Escola Básica n.º 5 de Setúbal,38.5262659,-8.8664183
242731,"Escola Básica Teixeira de Pascoais, Lisboa",38.7472164,-9.1360887
242780,"Escola Básica Eurico Gonçalves, Lisboa",38.7800957,-9.159280299999999
242834,Escola Básica n.º 6 de Setúbal,38.53201749999999,-8.868218599999999
242860,"Escola Básica António Nobre, Lisboa",38.74590620000001,-9.1774919
242883,"Escola Básica de São João de Brito, Lisboa",38.7562929,-9.1372144
242901,"Escola Básica Paulino Montez, Lisboa",38.773693,-9.1185475
242949,"Escola Básica Luiza Neto Jorge, Lisboa",38.7526956,-9.123998199999999
242950,"Escola Básica Professor Manuel Sérgio, Lisboa",38.7127303,-9.2016779
243012,"Escola Básica Padre Abel Varzim, Lisboa",38.7138901,-9.145399099999999
243024,Escola Básica n.º 7 de Setúbal,38.5227818,-8.8760964
243050,"Escola Básica de Laranjeiras, Lisboa",38.7554748,-9.1739116
243061,"Escola Básica Dom Luís da Cunha, Lisboa",38.7563807,-9.167605499999999
243085,"Escola Básica do Beato, Lisboa",38.7301914,-9.108218899999999
243097,"Escola Básica do Parque Silva Porto, Lisboa",38.7474522,-9.2049053
243115,"Escola Básica Arquitecto Gonçalo Ribeiro Telles, Lisboa",38.7334207,-9.2039239
243127,"Escola Básica Fernanda de Castro, Lisboa",38.7092268,-9.1711416
243164,Escola Básica n.º 8 de Setúbal,38.5257618,-8.8777806
243220,"Escola Básica Prista Monteiro, Lisboa",38.76604349999999,-9.1822046
243243,"Escola Básica do Bairro Madre de Deus, Lisboa",38.7334367,-9.114569699999999
243280,"Escola Básica O Leão de Arroios, Lisboa",38.7348968,-9.1366816
243292,"Escola Básica de Montalvão, Setúbal",38.5271436,-8.8968122
243322,"Escola Básica Actor Vale, Lisboa",38.7352572,-9.130171299999999
243346,"Escola Básica Arquitecto Victor Palla, Lisboa",38.7265576,-9.1251383
243360,"Escola Básica de Caselas, Lisboa",38.7145085,-9.2140679
243425,"Escola Básica Professor Oliveira Marques, Lisboa",38.7218558,-9.116541699999999
243437,Escola Básica n.º 9 de Setúbal,38.5283261,-8.9084471
243486,"Escola Básica dos Coruchéus, Lisboa",38.7505901,-9.145992399999999
243504,"Escola Básica de São João de Deus, Lisboa",38.73932,-9.1399232
243528,"Escola Básica Raúl Lino, Lisboa",38.7064146,-9.1800417
243541,"Escola Básica Arco-Íris, Lisboa",38.7636629,-9.1201255
243577,"Escola Básica do Bairro Afonso Costa, Setúbal",38.5292702,-8.8712396
243619,"Escola Básica Rainha Santa Isabel, Lisboa",38.7168657,-9.1555611
243632,"Escola Básica Professora Aida Vieira, Lisboa",38.767715,-9.1921923
243681,"Escola Básica Professor José Salvado Sampaio, Lisboa",38.7501817,-9.209462799999999
243700,"Escola Básica de Santa Maria dos Olivais, Lisboa",38.77632819999999,-9.1163897
243747,Escola Básica n.º 11 de Setúbal,38.5282172,-8.869404000000001
243759,"Escola Básica Adriano Correia de Oliveira, Lisboa",38.7674621,-9.121086
243760,"Escola Básica Sarah Afonso, Lisboa",38.7593385,-9.1099734
243772,"Escola Básica Maria da Luz de Deus Ramos, Lisboa",38.7910893,-9.1505786
243784,"Escola Básica Manuel Teixeira Gomes, Lisboa",38.7539272,-9.1114644
243838,"Escola Básica Alexandre Herculano, Lisboa",38.7030854,-9.194967199999999
243840,Escola Básica n.º 12 de Setúbal,38.5412046,-8.8938379
243851,"Escola Básica João dos Santos, Lisboa",38.7449353,-9.107240899999999
243863,Escola Básica n.º 195 de Lisboa,38.75371519999999,-9.1171512
243954,"Jardim de Infância Nossa Senhora da Anunciação, Agualva, Sintra",38.7728202,-9.2962401
243980,"Escola Básica de Albarraque, Sintra",38.7496203,-9.3507974
244004,"Escola Básica Professora Maria Margarida Rodrigues, Cascais",38.7343053,-9.407548199999999
244041,"Escola Básica Gracinda Antunes Valido, Alcoitão, Cascais",38.7333243,-9.394253299999999
244107,"Escola Básica de Alfarim, Sesimbra",38.475017,-9.155734
244132,"Escola Básica da Quinta Grande, Alfragide, Amadora",38.7390836,-9.221965299999999
244168,"Escola Básica n.º 2 de Alhandra, Vila Franca de Xira",38.9276014,-9.0100436
244181,"Escola Básica Feliciano Oleiro, Almada",38.6815588,-9.1608466
244211,"Escola Básica n.º 2 de Alpriate, Vila Franca de Xira",38.8642785,-9.0931724
244284,"Escola Básica da Quinta da Vala, Vila Franca de Xira",38.8960065,-9.0349636
244302,"Escola Básica da Quinta das Inglesinhas, Cruz de Pau, Seixal",38.6298918,-9.1244432
244314,"Escola Básica Fernando Teixeira Lopes, Cascais",38.7117181,-9.4163373
244417,"Escola Básica da Quinta de São João, Arrentela, Seixal",38.6226019,-9.1003699
244661,"Escola Básica de Meleças, Sintra",38.7980971,-9.310859299999999
244673,"Escola Básica Visconde de Leceia, Leceia, Oeiras",38.7265869,-9.2846079
244740,"Escola Básica n.º 2 de Belas, Sintra",38.774278,-9.2700751
244776,"Escola Básica do Cobre, Cascais",38.7139808,-9.4369449
244790,"Escola Básica n.º 2 da Bobadela, Loures",38.8019734,-9.0986411
244880,"Escola Básica da Brandoa, Amadora",38.767812,-9.2225199
244910,"Escola Básica do Alto do Moinho, Zambujal, Amadora",38.7310594,-9.215768299999999
244971,"Jardim de Infância n.º 1 do Cacém, Sintra",38.7663792,-9.309044199999999
245057,"Escola Básica n.º 2 de Camarate, Loures",38.8093667,-9.1428861
245124,"Escola Básica Artur Alves Cardoso, Caneças, Odivelas",38.8157167,-9.2139244
245148,"Escola Básica de Lombos, Carcavelos, Cascais",38.6904023,-9.329243
245161,"Escola Básica Antero Basalisa, Carnaxide, Oeiras",38.7275745,-9.2479862
245252,"Escola Básica n.º 2 de Casal de Cambra, Sintra",38.8036971,-9.227231
245290,"Escola Básica Professor Manuel Gaião, Cascais",38.7109695,-9.419256599999999
245604,"Escola Básica do Alto do Moinho, Seixal",38.6334768,-9.161252
245653,"Escola Básica José Cardoso Pires, Costa da Caparica, Almada",38.6563287,-9.2379994
245665,"Escola Básica n.º 1 da Cova da Piedade, Almada",38.6697608,-9.1610285
245800,"Escola Básica de Águas Livres, Damaia, Amadora",38.7475062,-9.2113443
245835,"Jardim de Infância de Camarões, Sintra",38.7900096,-9.322744499999999
246013,"Escola Básica Maria Irene Lopes de Azevedo, Venda Nova, Amadora",38.7577321,-9.209376299999999
246025,"Escola Básica Veiga Ferreira, Famões, Odivelas",38.7961756,-9.2184644
246086,"Escola Básica n.º 2 do Feijó, Almada",38.6523372,-9.160681499999999
246128,"Escola Básica da Quinta dos Morgados, Fernão Ferro, Seixal",38.565916,-9.0900547
246177,"Escola Básica da Quinta das Sementes, Paivas, Seixal",38.6182312,-9.1206265
246207,"Jardim de Infância da Cruz de Pau, Seixal",38.6208994,-9.1269235
246300,"Escola Básica A. H. Oliveira Marques, Cascais",38.70459630000001,-9.379235699999999
246773,"Escola Básica Alexandre Castanheira, Laranjeiro, Almada",38.6568079,-9.1529134
246840,"Escola Básica Gil Vicente, Queijas, Oeiras",38.71896,-9.262384599999999
246876,"Escola Básica Gaivotas, Lisboa",38.7100003,-9.1452493
246955,Escola Básica n.º 2 de Loures,38.8239518,-9.1654216
246967,"Jardim de Infância de Salemas, Loures",38.8808855,-9.191985200000001
247054,"Escola Básica n.º 2 de Massamá, Sintra",38.7534889,-9.286978099999999
247108,"Escola Básica n.º 2 de Mem Martins, Sintra",38.7918768,-9.3406383
247170,"Escola Básica n.º 2 de Mira Sintra, Sintra",38.7829448,-9.3029614
247200,"Escola Básica José Afonso, Corroios, Seixal",38.6540244,-9.143233
247224,Escola Básica n.º 2 da Moita,38.6497299,-8.988192999999999
247315,"Escola Básica n.º 1 de Monte da Caparica, Almada",38.6679349,-9.1931596
247327,"Escola Básica Eça de Queirós, Ramada, Odivelas",38.8142726,-9.201284399999999
247340,"Escola Básica Joaquim de Almeida, Montijo",38.7056801,-8.9680426
247480,"Escola Básica António Maria Bravo, Odivelas",38.7894952,-9.1792166
247509,"Escola Básica n.º 2 de Olhos de Água, Lagoinha, Palmela",38.5987567,-8.9283927
247674,"Escola Básica da Quinta da Courela, Aldeia de Paio Pires, Seixal",38.6168709,-9.083106299999999
247698,"Escola Básica de Francos, Sintra",38.7606439,-9.3275838
247716,Escola Básica n.º 2 de Palmela,38.56947359999999,-8.8988438
247765,"Escola Básica Afonso do Paço, Parede, Cascais",38.6922132,-9.352561999999999
247996,"Escola Básica João Eduardo Xavier, Pinhal Novo, Palmela",38.6288654,-8.911253799999999
248095,"Escola Básica Mello Falcão, Pontinha, Odivelas",38.7651108,-9.199756899999999
248150,"Escola Básica Rogério Ribeiro, Pragal, Almada",38.6711737,-9.178993799999999
248289,"Escola Básica n.º 2 da Quinta do Conde, Sesimbra",38.5617631,-9.038023599999999
248290,"Escola Básica n.º 2 de Queluz, Sintra",38.7554526,-9.2506905
248344,"Escola Básica de Amoreira, Ramada, Odivelas",38.8043633,-9.1928472
248370,"Escola Básica Vasco Martins Rebolo, Reboleira, Amadora",38.7508635,-9.232276599999999
248460,"Escola Básica n.º 2 da Rinchoa, Sintra",38.7850148,-9.320926799999999
248617,"Escola Básica n.º 2 de São João da Talha, Loures",38.8211863,-9.0961567
248800,"Escola Básica da Cotovia, Sesimbra",38.4705222,-9.101726
248903,"Escola Básica do Bairro Novo, Seixal",38.6393532,-9.099335500000002
248990,"Escola Básica dos Arcos, Setúbal",38.5296224,-8.8938721
249051,"Jardim de Infância da Sobreda, Almada",38.6533847,-9.1828498
249154,"Escola Básica do Bairro da Covina, Santa Iria de Azoia, Loures",38.8354345,-9.088229
249180,"Escola Básica de São Julião do Tojal, Loures",38.859259,-9.133681900000001
249191,"Escola Básica da Cidade Sol, Santo António da Charneca, Barreiro",38.6314098,-9.0330567
249312,"Escola Básica n.º 2 de Tires, Cascais",38.7236655,-9.343662
249324,"Escola Básica de A-dos-Cãos, Loures",38.8452831,-9.2233805
249350,"Escola Básica da Quinta de Nossa Senhora do Monte Sião, Torre da Marinha, Seixal",38.6165062,-9.1006539
249385,"Escola Básica Cremilde Castro e Norvinda Silva, Almada",38.6645027,-9.2308646
249488,"Escola Básica de Unhos, Catujal, Loures",38.8162046,-9.1260414
249490,"Escola Básica da Serra da Luz, Odivelas",38.772765,-9.1902671
249567,"Escola Básica n.º 2 de Vale de Figueira, Vale Fetal, Almada",38.6290665,-9.1828766
249592,"Escola Básica da Quinta Cabouca, Vale de Milhaços, Seixal",38.6309804,-9.1601336
249671,"Jardim de Infância Raquel Gameiro, Venteira, Amadora",38.7561994,-9.2419012
249701,"Escola Básica Professor Romeu Gil, Forte da Casa, Vila Franca de Xira",38.8735489,-9.056151999999999
250016,Escola Básica de Setúbal,38.52179040000001,-8.8679612
250077,"Escola Básica Rosa Lobato Faria, Lisboa",38.7205387,-9.1202388
250193,"Escola Básica do Bairro de São Miguel, Lisboa",38.7469147,-9.145591399999999
250223,"Escola Básica Alice Vieira, Lisboa",38.7607273,-9.1133967
250259,"Escola Básica Sampaio Garrido, Lisboa",38.7261266,-9.1323327
250302,"Escola Básica Engenheiro Duarte Pacheco, Lisboa",38.72351219999999,-9.164238
250326,"Escola Básica de São José, Lisboa",38.71969319999999,-9.142322499999999
250340,"Escola Básica n.º 3 de Agualva, Sintra",38.7696916,-9.2950488
250351,"Escola Básica de Serradas, Sintra",38.769497,-9.3333143
250363,Escola Básica n.º 1 de Alcochete,38.7541002,-8.959869
250387,"Escola Básica Malangatana, Alcoitão, Cascais",38.746496,-9.388123
250429,"Escola Básica de Alhos Vedros, Fonte da Prata, Moita",38.6527958,-9.0059902
250430,Escola Básica de Almada,38.6833619,-9.1528125
250478,"Escola Básica Infante D. Augusto, Cruz de Pau, Seixal",38.62750140000001,-9.1240809
250510,"Escola Básica n.º 3 da Baixa da Banheira, Moita",38.65810990000001,-9.0444251
250545,"Escola Básica Professora Manuela Fonseca, Barreiro",38.6556697,-9.071069099999999
250569,"Escola Básica de Areia - Guincho, Cascais",38.718539,-9.4627231
250570,"Escola Básica n.º 3 da Bobadela, Loures",38.8068961,-9.1001438
250600,"Jardim de Infância Cova da Moura, Buraca, Amadora",38.744751,-9.2147495
250612,"Escola Básica Ribeiro de Carvalho, Cacém, Sintra",38.7693391,-9.311691399999999
250650,"Escola Básica de Fetais, Vila Lorena, Loures",38.8000944,-9.1454306
250685,"Escola Básica Cesário Verde, Caneças, Odivelas",38.80922410000001,-9.218764
250715,"Escola Básica de Alvide, Cascais",38.7157785,-9.4219154
250788,"Escola Básica da Quinta do Campo, Corroios, Seixal",38.6416621,-9.1531888
250790,"Escola Básica n.º 2 da Cova da Piedade, Almada",38.6714085,-9.1637486
250820,"Escola Básica Condes da Lousã, Damaia, Amadora",38.7478513,-9.2234097
250909,"Escola Básica Santos Mattos, Venda Nova, Amadora",38.7532488,-9.2132866
250910,"Escola Básica de Vale Grande, Odivelas",38.7899737,-9.2221156
250922,"Escola Básica do Faralhão, Setúbal",38.5219508,-8.818186899999999
250934,"Escola Básica Maria Rosa Colaço, Feijó, Almada",38.64887179999999,-9.1599722
250960,"Escola Básica de Paivas, Seixal",38.6221898,-9.115343099999999
251150,"Escola Básica D. Pedro V, Linda-a-Velha, Oeiras",38.7122194,-9.2461679
251185,"Escola Básica de Fanqueiro, Loures",38.8389752,-9.169489200000001
251252,Escola Básica da Moita,38.6548966,-8.9920651
251290,"Escola Básica Maria Adelaide Silva, Almada",38.6712588,-9.1889901
251306,"Escola Básica Luís de Camões, Montijo",38.7080758,-8.9790551
251318,"Escola Básica da Quinta da Alegria, Moscavide, Loures",38.7807794,-9.1063808
251355,"Escola Básica D. Dinis n.º 1, Odivelas",38.7931237,-9.1807517
251367,"Escola Básica Gomes Freire de Andrade, Oeiras",38.6963738,-9.3098708
251458,"Escola Básica Anselmo de Oliveira, Paço de Arcos, Oeiras",38.6904265,-9.3024124
251501,"Escola Básica Salgueiro Maia, Pinhal Novo, Palmela",38.62210719999999,-8.912242299999999
251549,"Escola Básica de Bragadas, Póvoa de Santa Iria, Vila Franca de Xira",38.8585242,-9.079893499999999
251550,"Escola Básica de Olival Basto, Odivelas",38.7899365,-9.1653878
251574,"Escola Básica n.º 3 da Quinta do Conde, Sesimbra",38.5726886,-9.0491505
251598,"Escola Básica Professora Maria Costa, Ponte da Bica, Odivelas",38.8088549,-9.204832
251604,"Escola Básica José Ruy, Reboleira, Amadora",38.7489225,-9.2279161
251665,"Escola Básica de Vale Figueira, Loures",38.8213063,-9.1037219
251690,"Escola Básica n.º 3 de Sacavém, Loures",38.7919273,-9.1106829
251744,"Escola Básica de São Gabriel, Setúbal",38.5411723,-8.8837539
251770,"Escola Básica Júlio Dinis, Santa Iria de Azoia, Loures",38.8364211,-9.0981962
251835,"Escola Básica Padre Agostinho da Silva, Tires, Cascais",38.713201,-9.3445814
251914,"Escola Básica n.º 2 de Vialonga, Vila Franca de Xira",38.8770989,-9.0859305
251987,"Escola Básica de Moinhos do Restelo, Lisboa",38.70743300000001,-9.206920199999999
252013,"Escola Básica Quinta dos Frades, Lisboa",38.77072,-9.162264000000002
252050,"Escola Básica Santo António, Lisboa",38.7543048,-9.1473257
252086,"Escola Básica Padre José Manuel Rocha e Melo, Lisboa",38.7748928,-9.1502153
252116,"Escola Básica de São Sebastião da Pedreira, Lisboa",38.730912,-9.1500711
252130,"Escola Básica Viscondessa dos Olivais, Lisboa",38.7696307,-9.106354500000002
252165,"Escola Básica Luísa Ducla Soares, Lisboa",38.72215449999999,-9.1437776
252220,Escola Básica n.º 2 de Alcochete,38.748316,-8.9677466
252232,Jardim de Infância de Almada,38.6831096,-9.1546463
252268,"Escola Básica da Quinta Medideira, Amora, Seixal",38.630723,-9.1167642
252270,"Escola Básica n.º 1 da Baixa da Banheira, Moita",38.6533362,-9.0432994
252359,"Escola Básica n.º 4 de Camarate, Loures",38.79637049999999,-9.123066
252360,"Escola Básica de São José, Cascais",38.7088758,-9.424803599999999
252396,"Escola Básica da Cova da Piedade, Almada",38.6733281,-9.156671
252463,"Escola Básica da Terra dos Arcos, Falagueira, Amadora",38.7550056,-9.2269658
252475,"Escola Básica Sophia de Mello Breyner Andresen, Famões, Odivelas",38.794082,-9.2133404
252505,"Escola Básica da Quinta do Conde de Portalegre, Paivas, Seixal",38.6205651,-9.1124206
252517,"Escola Básica de Foros de Amora, Seixal",38.6103746,-9.133622299999999
252578,"Escola Básica do Infantado, Loures",38.839462,-9.1606047
252610,"Escola Básica Manuel Heleno, Carenque, Amadora",38.7712896,-9.2499776
252633,"Escola Básica de Afonsoeiro, Montijo",38.6981338,-8.9520517
252657,"Escola Básica Rainha Santa, Patameiras, Odivelas",38.784626,-9.188574899999999
252682,"Escola Básica n.º 4 da Parede, Cascais",38.700406,-9.3543886
252724,"Escola Básica n.º 4 da Póvoa de Santa Iria, Vila Franca de Xira",38.8572316,-9.07387
252736,"Escola Básica da Flamenga, Loures",38.8112743,-9.1576369
252750,"Escola Básica João Villaret, Ramada, Odivelas",38.80091609999999,-9.187661499999999
252803,"Escola Básica n.º 4 de São João da Talha, Loures",38.8269061,-9.1018709
252815,"Escola Básica de Prior Velho, Loures",38.7929687,-9.1230845
252864,"Escola Básica do Alto da Eira, Santa Iria de Azoia, Loures",38.8446045,-9.0898713
252876,"Jardim de Infância de Pintéus, Loures",38.9006084,-9.1183274
252888,"Escola Básica de Tires, Cascais",38.72316000000001,-9.35184
252890,"Escola Básica n.º 3 da Trafaria, Almada",38.6703549,-9.2339213
252992,"Escola Básica Engenheiro Ressano Garcia, Lisboa",38.7138065,-9.165737799999999
253042,"Escola Básica Mestre Arnaldo Louro de Almeida, Lisboa",38.7458519,-9.1562527
253066,"Escola Básica da Luz-Carnide, Lisboa",38.7593324,-9.186533599999999
253110,"Escola Básica Frei Luís de Sousa, Lisboa",38.7414569,-9.1717515
253133,"Escola Básica da Quinta da Princesa, Seixal",38.6346655,-9.1319952
253157,"Escola Básica n.º 4 de Alverca do Ribatejo, Vila Franca de Xira",38.8942708,-9.0437961
253169,"Escola Básica n.º 1 de Vale da Amoreira, Moita",38.6478086,-9.0398027
253182,Escola Básica n.º 5 do Barreiro,38.6560112,-9.063412399999999
253194,"Escola Básica n.º 5 de Belas, Serra da Silveira, Sintra",38.7782199,-9.2551425
253236,"Escola Básica n.º 5 de Camarate, Loures",38.7913387,-9.1360283
253250,"Escola Básica da Quinta de Santa Marta de Corroios, Seixal",38.6320913,-9.1443163
253261,"Escola Básica n.º 3 da Cova da Piedade, Almada",38.6761075,-9.1570387
253352,"Jardim de Infância de A-da-Beja, Amadora",38.7901535,-9.2309225
253376,"Escola Básica de Areias, Montijo",38.7116945,-8.949547599999999
253390,"Escola Básica António Rebelo de Andrade, Oeiras",38.6977164,-9.3262148
253418,"Escola Básica da Quinta de São José, Póvoa de Santo Adrião, Odivelas",38.8025995,-9.1607507
253467,"Escola Básica do Viso, Setúbal",38.5260719,-8.9023741
253479,"Escola Básica Fernando Pessoa, Santa Iria de Azoia, Loures",38.8390905,-9.1001087
253492,Escola Básica n.º 4 de Vila Franca de Xira,38.9409803,-8.999931199999999
253560,"Escola Básica Jorge Barradas, Lisboa",38.7555922,-9.2035097
253583,"Escola Básica Professor Agostinho da Silva, Lisboa",38.7476404,-9.1056715
253595,"Escola Básica do Condado, Lisboa",38.745222,-9.111447799999999
253601,"Escola Básica Infante D. Henrique, Lisboa",38.7719669,-9.1027468
253613,"Escola Básica n.º 1 de Telheiras, Lisboa",38.7597306,-9.1715289
253662,Escola Básica n.º 6 do Barreiro,38.65956240000001,-9.0617504
253716,"Escola Básica D. Nuno Álvares Pereira, Corroios, Seixal",38.6483876,-9.148660699999999
253765,"Escola Básica de Santo Condestável, Lisboa",38.7199322,-9.1676374
253790,"Escola Básica da Liberdade, Montijo",38.7132548,-8.970450699999999
253807,"Escola Básica Bernardim Ribeiro, Odivelas",38.7961483,-9.1730661
253819,"Escola Básica Barbosa du Bocage, Póvoa de Santo Adrião, Odivelas",38.7993397,-9.1628191
253856,"Escola Básica da Via Rara, Loures",38.8510037,-9.0812379
253923,"Jardim de Infância Alexandre Rodrigues Ferreira, Lisboa",38.7041738,-9.1974879
253959,"Escola Básica do Bairro do Restelo, Lisboa",38.7014848,-9.217772
254150,"Escola Básica Maria Máxima Vaz, Odivelas",38.7952726,-9.1768356
254265,Escola Básica n.º 72 de Lisboa,38.7122902,-9.1588616
254320,"Escola Básica de Santo Amaro, Lisboa",38.7037049,-9.1852746
254332,Escola Básica da Alta de Lisboa,38.7828426,-9.1489956
254368,"Escola Básica n.º 5 da Baixa da Banheira, Moita",38.6541831,-9.0379147
254370,Escola Básica n.º 8 do Barreiro,38.6578475,-9.065209699999999
254435,"Escola Básica Artur Martinho Simões, São Brás, Amadora",38.7678688,-9.232921
254447,"Escola Básica de Casais de Trigache, Famões, Odivelas",38.7991921,-9.2078516
254472,"Escola Básica de Azeda, Setúbal",38.5390693,-8.876083099999999
254587,"Escola Básica n.º 6 da Baixa da Banheira, Moita",38.6567498,-9.048936
254599,Escola Básica n.º 9 do Barreiro,38.65293140000001,-9.0606948
254630,"Escola Básica de Lóios, Lisboa",38.7588165,-9.124389899999999
254642,"Escola Básica de Moinhos da Funcheira, Amadora",38.7764145,-9.2340311
254654,"Escola Básica Manuel Coco, Odivelas",38.79724360000001,-9.1931332
254678,Escola Básica n.º 4 de Setúbal,38.5314776,-8.8707798
254710,"Escola Básica Dr. Nuno Cordeiro Ferreira, Lisboa",38.7757565,-9.155100899999999
254733,"Escola Básica Rainha D. Estefânia/Hospital, Lisboa",38.728244,-9.139270999999999
258982,"Escola Básica Orlando Gonçalves, Alfornelos, Amadora",38.7615023,-9.205328
259457,"Escola Básica Alice Leite, Alfornelos, Amadora",38.7631404,-9.2087383
261403,"Escola Básica de Palhais, Barreiro",38.62494119999999,-9.048779099999999
261440,"Escola Básica de Palhota, Palmela",38.61322570000001,-8.8803311
262481,"Escola Básica de Passil, Alcochete",38.7092899,-8.8972014
263345,"Escola Básica de Pegões Velhos, Montijo",38.6829717,-8.6649129
263357,"Escola Básica de Pegões Cruzamento, Pegões, Montijo",38.6843357,-8.613650699999999
263783,"Escola Básica de Penteado, Moita",38.6359696,-8.9578881
264805,"Escola Básica de Pinhal de Frades, Seixal",38.5928945,-9.0946796
265986,"Escola Básica da Portela, Loures",38.7811483,-9.1125051
266474,"Escola Básica de Povos, Vila Franca de Xira",38.9720122,-8.982816399999999
268471,"Escola Básica da Rebelva, Cascais",38.6963296,-9.33962
270210,"Escola Básica do Rosário, Moita",38.6772449,-9.0077711
270817,"Escola Básica de São Francisco, Alcochete",38.7292827,-8.972753500000001
271184,"Escola Básica n.º 1 de São João do Estoril, Cascais",38.699768,-9.3790517
271937,"Escola Básica Hortênsia Diogo Correia, Cascais",38.6971298,-9.3733884
272802,"Escola Básica do Samouco, Alcochete",38.7225454,-9.0029319
272863,"Escola Básica do Sanatório do Outão, Setúbal",38.4902001,-8.9341599
273983,"Escola Básica de Sarilhos Pequenos, Moita",38.6809716,-8.9839751
275608,"Escola Básica do Sobral da Abelheira, Mafra",38.939506,-9.3360662
275670,"Escola Básica do Sobralinho, Vila Franca de Xira",38.9183297,-9.025239599999999
277319,"Escola Básica Fernando de Bulhões, Santo António dos Cavaleiros, Loures",38.8129134,-9.1628334
277629,"Escola Básica de Talaíde, Cascais",38.7373998,-9.3113168
278075,"Escola Básica de Santo António de Tercena, Oeiras",38.747712,-9.2814318
278580,"Escola Básica Branquinho da Fonseca, Cascais",38.7028805,-9.444648899999999
279031,"Escola Básica de Trajouce, Cascais",38.7368978,-9.3409978
279870,"Escola Básica de Vila Nogueira de Azeitão, Setúbal",38.5190939,-9.0186222
280082,"Escola Básica da Vala do Carregado, Vila Franca de Xira",39.005243,-8.9556728
280483,"Jardim de Infância de Vale da Vila, Palmela",38.6227668,-8.8697942
282467,"Escola Básica de Vendas de Azeitão, Setúbal",38.5297617,-8.9922611
283289,"Escola Básica de Vila Chã, Barreiro",38.6392895,-9.0456789
285717,"Escola Básica da Várzea de Sintra, Sintra",38.818889,-9.3967181
285870,"Escola Básica do Zambujal, Loures",38.8702684,-9.1223295
286072,"Escola Básica de A-dos-Loucos, Vila Franca de Xira",38.9386956,-9.0154417
287155,"Escola Básica do Gaio, Moita",38.6706243,-9.0042037
287167,Escola Básica de Sesimbra,38.4455914,-9.1004353
287313,"Escola Básica da Tapada das Mercês, Sintra",38.79790819999999,-9.3296104
287325,"Escola Básica da Restauração, Alcochete",38.7518783,-8.9644221
287623,"Escola Básica do Casal da Barôta, Belas, Sintra",38.7612471,-9.2763331
287714,"Escola Básica Mário Cunha Brito, Belas, Sintra",38.7794788,-9.2617311
287726,"Escola Básica do Casal do Cotão, Sintra",38.7629295,-9.3011737
287738,"Escola Básica n.º 1 de Fitares, Sintra",38.7847937,-9.313362099999999
287740,"Escola Básica de Colaride, Agualva, Sintra",38.768198,-9.2923189
287751,"Escola Básica n.º 1 de São Marcos, Sintra",38.7475035,-9.2932768
287763,"Escola Básica do Casal da Cavaleira, Sintra",38.8064398,-9.3554893
287775,"Escola Básica n.º 1 de Rio de Mouro, Sintra",38.7810393,-9.3215276
287787,"Escola Básica de Xutaria, Belas, Sintra",38.7640683,-9.2769251
287805,"Escola Básica Pedro Álvares Cabral, Porto Salvo, Oeiras",38.7304872,-9.3174798
287817,"Escola Básica da Rosa dos Ventos, Afonsoeiro, Montijo",38.7043344,-8.954516
287829,"Escola Básica de Caneira, Montijo",38.6766094,-8.9679807
287830,"Escola Básica Joaquim José Carvalho, Palmela",38.5719729,-8.9023577
287878,"Escola Básica da Quinta da Condessa, Bairro da Condessa, Odivelas",38.7801706,-9.2125984
287880,"Escola Básica do Lumiar, Lisboa",38.7675658,-9.1679312
287891,"Escola Básica de Mem Martins, Sintra",38.7893695,-9.3527905
287908,"Escola Básica Amélia Vieira Luís, Outurela, Oeiras",38.7227505,-9.224985
287910,"Escola Básica Ricardo Alberty, São Brás, Amadora",38.7705235,-9.2274335
287933,"Escola Básica de Vila Fresca de Azeitão, Setúbal",38.5254805,-8.9970948
288159,"Escola Básica Brito Pais, Amadora",38.7806481,-9.2271664
288160,"Escola Básica de Sassoeiros, Cascais",38.7070284,-9.385698600000001
288172,"Jardim de Infância Nossa Senhora do Vale, Caxias, Oeiras",38.7028113,-9.276953599999999
288494,"Escola Básica de Vale Flores, Feijó, Almada",38.6533331,-9.174163499999999
288500,"Escola Básica n.º 1 do Lavradio, Barreiro",38.6670919,-9.049629999999999
288512,"Escola Básica da Telha Nova, Barreiro",38.6448179,-9.054015999999999
288536,"Escola Básica Ary dos Santos, Montijo",38.712665,-8.9774456
290026,"Escola Básica de Mucifal, Sintra",38.8090716,-9.4425268
290038,"Escola Básica de Maceira, Sintra",38.8677518,-9.3133378
290040,"Escola Básica de Cortegaça, Sintra",38.7997661,-9.3923466
290051,"Escola Básica de Pêro Pinheiro, Sintra",38.8576836,-9.3238016
290063,"Escola Básica do Pendão, Sintra",38.7609802,-9.254586999999999
290117,"Escola Básica de Assafora, Sintra",38.904408,-9.414931
290130,"Escola Básica n.º 1 da Serra das Minas, Sintra",38.7867039,-9.3327479
290142,"Escola Básica n.º 2 da Serras das Minas, Sintra",38.7845758,-9.3289073
290178,"Escola Básica Dr. António Torrado, Agualva, Sintra",38.7717791,-9.2876321
290180,"Escola Básica n.º 2 de Agualva, Sintra",38.7732722,-9.3055021
290191,"Escola Básica de Abrunheira, Sintra",38.7746508,-9.357418299999999
290208,"Escola Básica de Manique de Cima, Sintra",38.7566574,-9.360273099999999
290210,"Escola Básica de São Pedro, Sintra",38.7917345,-9.3805631
290221,"Escola Básica de Lameiras e Fação, Sintra",38.8459923,-9.3417016
290233,"Escola Básica de Mira Sintra, Sintra",38.7873735,-9.304070699999999
290245,"Escola Básica n.º 2 de São Marcos, Sintra",38.7481117,-9.301765999999999
290257,"Escola Básica de Ouressa, Mem Martins, Sintra",38.7973687,-9.3520036
290269,"Escola Básica Eduardo Luna de Carvalho, Tapada das Mercês, Sintra",38.7978196,-9.329799200000002
290282,"Escola Básica de Almargem do Bispo, Sintra",38.8428522,-9.2724083
290300,"Escola Básica de Negrais, Sintra",38.8795138,-9.2787693
290312,"Escola Básica da Portela de Sintra, Sintra",38.799247,-9.3760339
290324,"Escola Básica n.º 3 de Belas, Sintra",38.7769524,-9.2702973
290336,"Jardim de Infância de Ral, Sintra",38.8273647,-9.3598061
290348,Escola Básica de Sintra,38.7997661,-9.3923466
290350,"Escola Básica de Galamares, Sintra",38.801035,-9.4167522
290520,"Escola Básica Prof. João Dias Agudo, Póvoa da Galega, Mafra",38.9340929,-9.208962399999999
292825,"Escola Básica de Vila Nova da Caparica, Almada",38.6450373,-9.2053088
293570,"Escola Básica António Matos Fortuna, Quinta do Anjo, Palmela",38.569378,-8.9441452
293581,"Escola Básica de Aires, Palmela",38.5721984,-8.8806914
293593,"Escola Básica do Casal da Serra, Paiã, Odivelas",38.7816266,-9.2062665
293600,"Escola Básica Narcisa Pereira, Linda-a-Pastora, Oeiras",38.7242994,-9.2635627
293611,"Escola Básica Manuel Beça Múrias, Oeiras",38.6818423,-9.3217079
293623,"Escola Básica Sá de Miranda, Oeiras",38.6942262,-9.3273374
293635,"Escola Básica Maria Luciana Seruca, Paço de Arcos, Oeiras",38.7025649,-9.291901200000002
293647,"Jardim de Infância Roberto Ivens, Dafundo, Oeiras",38.7450456,-9.3067573
293659,"Escola Básica São Bento, Valejas, Oeiras",38.7364058,-9.2670897
293660,"Escola Básica Jorge Mineiro, Queluz de Baixo, Oeiras",38.7456192,-9.2699831
293672,"Escola Básica de Cabra Figa, Sintra",38.748773,-9.3378803
293684,"Escola Básica de Vila Verde, Sintra",38.83586710000001,-9.3684105
293696,"Escola Básica de Massamá, Sintra",38.7575034,-9.273986700000002
293702,"Escola Básica de Pego Longo, Sintra",38.7713156,-9.257015
293714,"Escola Básica de Lopas, Agualva, Sintra",38.7773077,-9.295624799999999
293740,"Escola Básica n.º 1 da Venda do Pinheiro, Mafra",38.922362,-9.2352662
293751,"Escola Básica n.º 2 de Rio de Mouro, Sintra",38.7833725,-9.3250245
293866,"Escola Básica de Fidalguinhos, Barreiro",38.6497877,-9.048173799999999
293878,"Escola Básica Zeca Afonso, Pinhal Novo, Palmela",38.6339743,-8.909741
293891,"Escola Básica de Santa Eulália, Vila Franca de Xira",38.9584799,-8.9910367
293910,"Escola Básica de Dona Maria, Sintra",38.8136177,-9.2543442
293921,"Escola Básica n.º 7 da Baixa da Banheira, Moita",38.6633822,-9.0465488
293933,"Escola Básica de Santo António da Charneca, Barreiro",38.6263792,-9.0336151
293945,Escola Básica do Barreiro,38.65235759999999,-9.0716137
293957,"Escola Básica n.º 2 do Lavradio, Barreiro",38.6637521,-9.0527898
293970,"Escola Básica da Malveira, Mafra",38.9362482,-9.258801
294032,"Escola Básica do Lourel, Sintra",38.8144219,-9.368424
294044,"Escola Básica de Cabeço de Montachique, Loures",38.9040607,-9.1913558
294056,"Escola Básica de São João das Lampas, Sintra",38.8722595,-9.3979509
294081,"Escola Básica de Póvoa de Santa Iria Norte, Vila Franca de Xira",38.8609453,-9.0663381
294093,"Escola Básica da Quinta da Cevadeira, Castanheira do Ribatejo, Vila Franca de Xira",38.9952974,-8.9768844
294159,"Escola Básica n.º 2 de Monte Abraão, Sintra",38.7850148,-9.320926799999999
294184,"Escola Básica de Chegadinho, Feijó, Almada",38.6613007,-9.1630861
294196,"Escola Básica Louro Artur, Charneca de Caparica, Almada",38.6002951,-9.1802983
294202,"Escola Básica José Garcês, Casal da Mira, Amadora",38.7778295,-9.2238262
294226,"Escola Básica Artur Patrocínio, Azueira, Mafra",39.00253,-9.284990900000002
294238,"Escola Básica de Santo Estevão das Galés, Mafra",38.89712069999999,-9.2522203
294445,"Escola Básica da Quinta dos Franceses, Seixal",38.6393954,-9.100849499999999
294482,"Escola Básica do Alto da Peça, Alcabideche, Cascais",38.735637,-9.4019924
294494,"Escola Básica do Bairro do Armador, Lisboa",38.7444722,-9.12114
294524,"Escola Básica da Fonte Santa, Loures",38.8410313,-9.191125699999999
294536,"Escola Básica do Casal da Serra, Póvoa de Santa Iria, Vila Franca de Xira",38.8613977,-9.0783638
294548,"Escola Básica de Alverca - Malva Rosa, Alverca do Ribatejo, Vila Franca de Xira",38.8876909,-9.0475228
294561,"Escola Básica Dr. Sanches de Brito, Mafra",38.9542098,-9.338830699999999
294585,"Escola Básica n.º 1 do Bom Retiro, Vila Franca de Xira",38.95431850000001,-9.001281900000002
294640,"Escola Básica Alberto Valente, Pinhal Novo, Palmela",38.6212664,-8.9207438
294676,"Escola Básica do Pinhal General, Quinta do Conde, Sesimbra",38.5627873,-9.053502
294780,"Escola Básica São Silvestre do Gradil, Gradil, Mafra",38.9827922,-9.278115699999999
295190,"Escola Básica da Brejoeira, Vila Nogueira de Azeitão, Setúbal",38.5477752,-9.0246664
295516,"Escola Básica de São Miguel de Alcainça, Alcainça, Mafra",38.9210025,-9.2925687
295541,"Escola Básica de Porto Pinheiro, Odivelas",38.7945623,-9.1932107
295589,"Escola Básica Professor José Joaquim Rita Seixas, Barreiro",38.6623218,-9.0773712
295656,"Escola Básica São Miguel do Milharado, Milharado, Mafra",38.9502858,-9.1978885
295668,"Escola Básica Pintora Maluda, Lisboa",38.7908708,-9.1519997
295681,"Escola Básica Fernando Formigal de Morais, Varge Mondar, Sintra",38.7572892,-9.3381669
295693,"Escola Básica de Casal dos Apréstimos, Ramada, Odivelas",38.8092842,-9.1846915
295700,"Escola Básica Aprígio Gomes, Mina, Amadora",38.7625386,-9.2416672
296211,"Escola Básica de Porto Salvo, Oeiras",38.7147525,-9.3055617
296557,"Escola Básica Rómulo de Carvalho, S. Domingos de Rana, Cascais",38.7269996,-9.3410136
296867,"Escola Básica Presidente Maria Emília, Charneca de Caparica, Almada",38.6275536,-9.205197199999999
296879,"Escola Básica de Sampaio, Sesimbra",38.4750235,-9.0914383
297136,"Escola Básica dos Redondos, Seixal",38.5777434,-9.0807831
297161,"Escola Básica de Santa Clara, Lisboa",38.7148607,-9.1257281
310086,"Escola Básica D. Luís de Mendonça Furtado, Barreiro",38.6607989,-9.0672116
310104,"Escola Básica Damião de Góis, Lisboa",38.7576164,-9.1247128
310153,"Escola Básica Luísa Todi, Setúbal",38.5309122,-8.866595
310165,"Escola Básica Professor Lindley Cintra, Lisboa",38.7689946,-9.1629817
310190,"Escola Básica Nun’Álvares, Arrentela, Seixal",38.6296361,-9.100988
310220,"Escola Básica Prof. Pedro d’Orey da Cunha, Damaia, Amadora",38.74304739999999,-9.2192636
310335,"Escola Básica Sophia de Mello Breyner Andresen, Brandoa, Amadora",38.7647007,-9.2156875
310438,"Escola Básica D. Pedro Varela, Montijo",38.7112862,-8.985057500000002
330024,"Escola Básica do Bom Sucesso, Alverca do Ribatejo, Vila Franca de Xira",38.9062819,-9.0439939
330140,"Escola Básica Sophia de Mello Breyner, Portela, Oeiras",38.7199699,-9.2241775
330334,"Escola Básica Maria do Carmo Serrote, Sesimbra",38.56061529999999,-9.0451719
330346,"Escola Básica e Secundária Carlos Gargaté, Charneca de Caparica, Almada",38.6051566,-9.185435199999999
330371,"Escola Básica Maria Keil, Loures",38.8275565,-9.174995599999999
330814,"Escola Básica do Miradouro de Alfazina, Monte de Caparica, Almada",38.6735927,-9.189078199999999
331030,"Escola Básica de Vale Rosal, Vale Fetal, Almada",38.63079,-9.191269499999999
331041,"Escola Básica da Boa Água, Quinta do Conde, Sesimbra",38.5550092,-9.0507381
331053,"Escola Básica do Parque das Nações, Lisboa",38.7552992,-9.0977231
331065,"Escola Básica do Esteval, Montijo",38.7081178,-8.9563325
340042,"Escola Básica de Alapraia, Cascais",38.7090777,-9.3735733
340080,"Escola Básica de Alembrança, Feijó, Almada",38.6516798,-9.163126199999999
340110,"Escola Básica Maria Alberta Menéres, Tapada das Mercês, Sintra",38.7968163,-9.3340015
340121,"Escola Básica Almeida Garrett, Alfragide, Amadora",38.7337759,-9.2145993
340133,"Escola Básica Almirante Gago Coutinho, Lisboa",38.7529814,-9.135177299999999
340157,"Escola Básica do Catujal, Loures",38.8162046,-9.1260414
340169,"Escola Básica Álvaro Velho, Lavradio, Barreiro",38.6628704,-9.0546752
340236,"Escola Básica e Secundária António Bento Franco, Ericeira, Mafra",38.9676531,-9.4110414
340285,"Escola Básica António Sérgio, Cacém, Sintra",38.7749978,-9.3054033
340303,"Escola Básica de Aranguez, Setúbal",38.5272041,-8.8852592
340339,"Escola Básica Aristides de Sousa Mendes, Póvoa de Santa Iria, Vila Franca de Xira",38.8641267,-9.0663979
340340,"Escola Básica António Gedeão, Odivelas",38.7905692,-9.193020299999999
340376,"Escola Básica Avelar Brotero, Odivelas",38.7898352,-9.1745913
340388,"Escola Básica de Azeitão, Vila Nogueira de Azeitão, Setúbal",38.5190939,-9.0186222
340406,"Escola Básica Bartolomeu Dias, Sacavém, Loures",38.7919273,-9.1106829
340431,"Escola Básica Barbosa du Bocage, Setúbal",38.5373942,-8.8901393
340492,"Escola Básica Cardoso Lopes, Amadora",38.7688768,-9.2393822
340522,"Escola Básica José Cardoso Pires, São Brás, Amadora",38.7694579,-9.2313372
340534,"Escola Básica de Castanheiros, Caneças, Odivelas",38.8117468,-9.2287805
340560,"Escola Básica de São Bruno, Caxias, Oeiras",38.7099046,-9.275414699999999
340583,"Escola Básica das Olaias, Lisboa",38.7393715,-9.1218051
340601,"Escola Básica Conde de Oeiras, Oeiras",38.6964867,-9.323639799999999
340649,"Escola Básica da Cruz de Pau, Seixal",38.618592,-9.1223051
340698,"Escola Básica D. António da Costa, Almada",38.6769203,-9.1589745
340728,"Escola Básica D. Domingos Jardo, Mira Sintra, Sintra",38.7811334,-9.303484
340741,"Escola Básica D. Fernando II, Sintra",38.8053547,-9.3788588
340777,"Escola Básica D. João I, Baixa da Banheira, Moita",38.6545988,-9.0381013
340881,"Escola Básica e Secundária D. Martinho Vaz de Castelo Branco, Póvoa de Santa Iria, Vila Franca de Xira",38.863821,-9.0720399
340923,"Escola Básica D. Pedro II, Moita",38.6583833,-8.9865464
340935,"Escola Básica D. Pedro IV, Monte Abraão, Sintra",38.7558172,-9.2690097
341060,"Escola Básica Dr. António Augusto Louro, Arrentela, Seixal",38.6308354,-9.094896199999999
341174,"Escola Básica Dr. Joaquim de Barros, Paço de Arcos, Oeiras",38.6980923,-9.2964138
341307,"Escola Básica e Secundária Dr. Rui Grácio, Montelavar, Sintra",38.8636082,-9.3284594
341332,"Escola Básica Dr. Vasco Moniz, Vila Franca de Xira",38.9566073,-9.000116
341370,"Escola Básica Elias Garcia, Sobreda, Almada",38.6479106,-9.184247899999999
341423,"Escola Básica Eugénio dos Santos, Lisboa",38.7556369,-9.1444045
341460,"Escola Básica Fernando Pessoa, Lisboa",38.7663227,-9.116225799999999
341502,"Escola Básica Ferreira de Castro, Ouressa, Sintra",38.796623,-9.3518039
341526,"Escola Básica Francisco de Arruda, Lisboa",38.7068652,-9.187479999999999
341538,"Escola Básica D. Francisco Manuel Melo, Venteira, Amadora",38.7604004,-9.2471266
341617,"Escola Básica de São João do Estoril, Cascais",38.7070284,-9.385698600000001
341770,"Escola Básica de Moinhos da Arroja, Odivelas",38.7945623,-9.1932107
341812,"Escola Básica José Afonso, Alhos Vedros, Moita",38.6561888,-9.018314199999999
341836,"Escola Básica José Maria dos Santos, Pinhal Novo, Palmela",38.630958,-8.9152211
341897,"Escola Básica João Gonçalves Zarco, Cruz Quebrada-Dafundo, Oeiras",38.7009196,-9.2366606
341976,"Escola Básica Luís de Sttau Monteiro, Loures",38.8261504,-9.1672835
341988,"Escola Básica João Villaret, Loures",38.8434586,-9.1602558
342014,"Escola Básica e Secundária Luís António Verney, Lisboa",38.7341728,-9.1139387
342038,"Escola Básica Luís de Camões, Lisboa",38.7443609,-9.134951
342075,"Escola Básica Manuel da Maia, Lisboa",38.717486,-9.1702044
342117,"Escola Básica Maria Veleda, Loures",38.8158858,-9.1597992
342129,"Escola Básica Marquesa de Alorna, Lisboa",38.7350882,-9.1585743
342154,"Escola Básica de Marvila, Lisboa",38.7408226,-9.1110756
342166,"Escola Básica Professor Egas Moniz, Massamá, Sintra",38.7552392,-9.2846221
342178,"Escola Básica e Secundária Matilde Rosa Araújo, Matarraque, Cascais",38.7065991,-9.350933699999999
342191,"Escola Básica e Secundária Mestre Domingos Saraiva, Algueirão, Sintra",38.8012296,-9.3511212
342208,"Escola Básica Miguel Torga, São Brás, Amadora",38.7690726,-9.226947599999999
342210,"Escola Básica de Miraflores, Algés, Oeiras",38.7118543,-9.229782499999999
342221,"Escola Básica de Fragata do Tejo, Moita",38.6574052,-8.9952573
342245,"Escola Básica Ruy Belo, Queluz, Sintra",38.7606194,-9.2647291
342257,"Escola Básica de Monte da Caparica, Almada",38.6686902,-9.190943599999999
342300,"Escola Básica Mouzinho da Silveira, Baixa da Banheira, Moita",38.6500635,-9.044030099999999
342324,"Escola Básica de Camarate, Loures",38.7923811,-9.1430863
342361,"Escola Básica Nuno Gonçalves, Lisboa",38.7268254,-9.128074699999999
342397,"Escola Básica dos Olivais, Lisboa",38.761632,-9.1162795
342415,"Escola Básica Padre Alberto Neto, Rio de Mouro, Sintra",38.7819209,-9.317175299999999
342440,"Escola Básica Padre Abílio Mendes, Barreiro",38.6573784,-9.056745099999999
342520,"Escola Básica Paula Vicente, Lisboa",38.70507370000001,-9.205258299999999
342531,"Escola Básica Paulo da Gama, Amora, Seixal",38.6228178,-9.111382899999999
342555,"Escola Básica Pedro de Santarém, Lisboa",38.7495143,-9.1943184
342567,"Escola Básica Pedro Eanes Lobato, Amora, Seixal",38.62705529999999,-9.1168018
342634,"Escola Básica Carlos Ribeiro, Pinhal de Frades, Seixal",38.5970133,-9.0924918
342646,"Escola Básica Pintor Almada Negreiros, Lisboa",38.777605,-9.1447326
342660,"Escola Básica D. Dinis, Odivelas",38.7879701,-9.1862282
342701,"Escola Básica Professor Agostinho da Silva, Casal de Cambra, Sintra",38.7989113,-9.234199199999999
342725,Escola Básica de Cascais,38.703808,-9.4359191
342737,"Escola Básica e Secundária Professor Armando de Lucena, Malveira, Mafra",38.9338155,-9.2593303
342750,"Escola Básica Prof. Delfim Santos, Lisboa",38.7484107,-9.181192099999999
342828,"Escola Básica Professor Noronha Feio, Queijas, Oeiras",38.7188434,-9.2575737
342889,"Escola Básica da Quinta da Lomba, Barreiro",38.6456074,-9.0529897
342890,"Escola Básica da Quinta de Marrocos, Lisboa",38.749676,-9.1955083
342907,"Escola Básica da Quinta Nova da Telha, Alto do Seixalinho, Barreiro",38.6511807,-9.0626248
342919,"Escola Básica e Secundária Rainha D. Leonor de Lencastre, São Marcos, Sintra",38.7504093,-9.2986968
342968,"Escola Básica Roque Gameiro, Reboleira, Amadora",38.7537219,-9.232170499999999
343067,"Escola Básica do Castelo, Sesimbra",38.47374300000001,-9.0922123
343092,"Escola Básica Santo António, Parede, Cascais",38.6915872,-9.3469818
343110,"Escola Básica Navegador Rodrigues Soromenho, Sesimbra",38.4488162,-9.103543799999999
343146,"Escola Básica Soeiro Pereira Gomes, Alhandra, Vila Franca de Xira",38.9316972,-9.0176991
343213,"Escola Básica de São Julião da Barra, Oeiras",38.6834663,-9.3171465
343274,"Escola Básica de Telheiras, Lisboa",38.7626947,-9.1681032
343330,"Escola Básica de Vale de Milhaços, Seixal",38.6260233,-9.1620484
343353,"Escola Básica Vasco da Gama, Lisboa",38.7781082,-9.0933574
343377,"Escola Básica Vieira da Silva, Carnaxide, Oeiras",38.729357,-9.244955599999999
343419,"Escola Básica Visconde de Juromenha, Mem Martins, Sintra",38.7971622,-9.3268077
343869,"Escola Básica de Corroios, Seixal",38.6467223,-9.1480367
344515,"Escola Básica de Alfornelos, Amadora",38.760286,-9.209433800000001
344527,"Escola Básica e Secundária de Vialonga, Vila Franca de Xira",38.8734863,-9.0827105
344539,"Escola Básica Pedro Jacques de Magalhães, Alverca do Ribatejo, Vila Franca de Xira",38.8898908,-9.0353107
344564,"Escola Básica e Secundária do Alto dos Moinhos, Terrugem, Sintra",38.8528873,-9.3837612
344576,"Escola Básica Professor Galopim de Carvalho, Pendão, Sintra",38.7683591,-9.2572223
344588,"Escola Básica da Venda do Pinheiro, Mafra",38.922362,-9.2352662
344590,Escola Básica de Mafra,38.939506,-9.3360662
344618,"Escola Básica General Humberto Delgado, Santo António dos Cavaleiros, Loures",38.8136745,-9.1690744
344620,"Escola Básica Vasco Santana, Ramada, Odivelas",38.8027473,-9.182431800000002
344631,"Escola Básica de São João da Talha, Bairro do Estacal Novo, Loures",38.8286619,-9.102127399999999
344643,"Escola Básica de Santa Iria de Azoia, Loures",38.8377502,-9.089830899999999
344655,"Escola Básica Carlos Paredes, Póvoa de Santo Adrião, Odivelas",38.7984468,-9.1660755
344667,"Escola Básica da Bobadela, Loures",38.8055001,-9.103372
344679,"Escola Básica da Pontinha, Odivelas",38.7678041,-9.2053424
344680,"Escola Básica e Secundária Helena Cidade Moura, Alcabideche, Cascais",38.7311282,-9.4039012
345180,"Escola Básica Hermenegildo Capelo, Palmela",38.5749376,-8.9008669
345192,"Escola Básica de Pegões, Canha e Santo Isidro, Montijo",38.6777575,-8.5988058
345209,"Escola Básica de Vale da Amoreira, Moita",38.6478086,-9.0398027
345222,"Escola Básica da Costa da Caparica, Almada",38.6483272,-9.2336963
345234,"Escola Básica da Trafaria, Almada",38.6703549,-9.2339213
345246,"Escola Básica Comandante Conceição e Silva, Cova da Piedade, Almada",38.6687498,-9.1568581
345830,"Escola Básica El Rei D. Manuel I, Alcochete",38.7518493,-8.963904500000002
346226,"Escola Básica e Secundária Michel Giacometti, Quinta do Conde, Sesimbra",38.5690889,-9.0407657
346470,"Escola Básica de São Vicente/Telheiras, Lisboa",38.7598266,-9.1734876
346548,"Escola Básica do Bairro Padre Cruz, Lisboa",38.7674782,-9.1936211
346639,"Escola Básica D. António de Ataíde, Castanheira do Ribatejo, Vila Franca de Xira",38.9983955,-8.9718634
346676,"Escola Básica Padre José Rota, Forte da Casa, Vila Franca de Xira",38.8753897,-9.060912
346690,"Escola Básica do Alto do Lumiar, Lisboa",38.774495,-9.154272
346706,"Escola Básica de Piscinas, Lisboa",38.7709802,-9.109907000000002
346718,"Escola Básica Patrício Prazeres, Lisboa",38.7220545,-9.119038699999999
346720,"Escola Básica e Secundária Alfredo da Silva, Albarraque, Sintra",38.7514288,-9.351735099999999
346743,"Escola Básica Escultor Francisco dos Santos, Fitares, Sintra",38.7846209,-9.3136481
346767,"Escola Básica e Secundária Aquilino Ribeiro, Leião, Oeiras",38.7345401,-9.3046086
346792,"Escola Básica D. Carlos I, Sintra",38.808854,-9.3784838
346871,"Escola Básica e Secundária José Saramago, Poceirão, Palmela",38.6297262,-8.737454
400014,"Escola Secundária Alves Redol, Vila Franca de Xira",38.9584799,-8.9910367
400038,"Escola Básica e Secundária Amélia Rey Colaço, Linda-a-Velha, Oeiras",38.7061387,-9.242466
400105,"Escola Secundária Dom Manuel Martins, Setúbal",38.5227144,-8.8578092
400117,"Escola Secundária D. Pedro V, Lisboa",38.7417879,-9.1631216
400191,"Escola Secundária do Forte da Casa, Vila Franca de Xira",38.875106,-9.057668999999999
400221,"Escola Secundária Gago Coutinho, Alverca do Ribatejo, Vila Franca de Xira",38.8908933,-9.036344999999999
400348,"Escola Secundária Maria Amália Vaz de Carvalho, Lisboa",38.7265491,-9.156670799999999
400397,"Escola Secundária António Damásio, Lisboa",38.7704302,-9.108274999999999
400403,"Escola Básica e Secundária Professor Reynaldo dos Santos, Vila Franca de Xira",38.95431850000001,-9.001281900000002
400415,"Escola Secundária de Santa Maria, Sintra",38.7996793,-9.3784472
400439,"Escola Secundária Sebastião e Silva, Oeiras",38.6854185,-9.318294
400452,"Escola Secundária de São João do Estoril, Cascais",38.7022809,-9.3839093
400555,Escola Secundária de Cascais,38.69696709999999,-9.4337216
400567,"Escola Secundária de Santo André, Barreiro",38.6449561,-9.0612821
400580,"Escola Secundária José Saramago, Mafra",38.9418122,-9.3359116
400610,"Escola Secundária José Afonso, Loures",38.8276523,-9.1632876
400646,Escola Secundária da Moita,38.6588133,-8.9863237
400774,"Escola Básica e Secundária Alfredo da Silva, Barreiro",38.6610235,-9.0849859
400786,"Escola Secundária Alfredo dos Reis Silveira, Cavadas, Seixal",38.61908409999999,-9.098712599999999
400804,"Escola Básica e Secundária de Alvide, Cascais",38.7179951,-9.4242891
400816,Escola Secundária da Amadora,38.7552278,-9.2312373
400877,"Escola Básica e Secundária Anselmo de Andrade, Almada",38.67454920000001,-9.1644998
400889,"Escola Secundária António Gedeão, Cova da Piedade, Almada",38.6616459,-9.1599144
400981,"Escola Básica e Secundária Ordem de Sant´Iago, Setúbal",38.52155279999999,-8.8665631
401018,"Escola Secundária du Bocage, Setúbal",38.5335555,-8.892300400000002
401020,"Escola Secundária Braamcamp Freire, Pontinha, Odivelas",38.76736289999999,-9.2016441
401067,"Escola Secundária Camilo Castelo Branco, Carnaxide, Oeiras",38.7217336,-9.2462222
401109,"Escola Secundária Camões, Lisboa",38.7301962,-9.1434186
401160,"Escola Secundária de Casquilhos, Barreiro",38.6509451,-9.0576973
401201,"Escola Básica e Secundária da Cidadela, Cascais",38.7018776,-9.429107
401250,"Escola Secundária D. Dinis, Lisboa",38.75151630000001,-9.112163299999999
401274,"Escola Básica e Secundária D. Filipa de Lencastre, Lisboa",38.7397284,-9.140119799999999
401316,"Escola Secundária D. João II, Setúbal",38.5314776,-8.8707798
401328,"Escola Básica e Secundária D. João V, Damaia, Amadora",38.7422622,-9.2164583
401330,"Escola Secundária D. Luísa de Gusmão, Lisboa",38.7266928,-9.1306728
401390,"Escola Secundária Dr. António Carvalho Figueiredo, Loures",38.8291177,-9.16297
401420,"Escola Básica e Secundária Dr. Azevedo Neves, Damaia, Amadora",38.7451096,-9.227012199999999
401481,"Escola Secundária Dr. José Afonso, Arrentela, Seixal",38.6314322,-9.1019688
401602,"Escola Secundária de Cacilhas-Tejo, Almada",38.6820826,-9.151717099999999
401614,"Escola Secundária Emídio Navarro, Almada",38.6774863,-9.1549585
401663,"Escola Secundária Eça de Queirós, Lisboa",38.7636566,-9.110914200000002
401699,"Escola Secundária Fernando Lopes Graça, Parede, Cascais",38.69660340000001,-9.352693799999999
401705,"Escola Secundária Fernando Namora, Amadora",38.76416870000001,-9.215775899999999
401729,"Escola Secundária Fernão Mendes Pinto, Pragal, Almada",38.67292399999999,-9.168838700000002
401754,"Escola Secundária Ferreira Dias, Agualva, Sintra",38.7697442,-9.299025499999999
401778,"Escola Secundária Fonseca Benevides, Lisboa",38.70167120000001,-9.1875836
401808,"Escola Básica e Secundária Francisco Simões, Laranjeiro, Almada",38.6526305,-9.154697299999999
401810,"Escola Básica e Secundária Frei Gonçalo de Azevedo, São Domingos de Rana, Cascais",38.7171738,-9.3407931
401833,"Escola Básica e Secundária Gama Barros, Cacém, Sintra",38.7711288,-9.313829499999999
401857,"Escola Básica e Secundária Gil Vicente, Lisboa",38.7165121,-9.1280375
401912,"Escola Básica e Secundária Ibn Mucana, Alcabideche, Cascais",38.734871,-9.405681
401948,"Escola Secundária Jorge Peixinho, Montijo",38.7099307,-8.9829274
401950,"Escola Básica e Secundária Josefa de Óbidos, Lisboa",38.71267,-9.1680964
401973,"Escola Secundária José Gomes Ferreira, Lisboa",38.7477775,-9.1933682
402000,"Escola Secundária João de Barros, Corroios, Seixal",38.6380213,-9.1506322
402059,"Escola Secundária Leal da Câmara, Rio de Mouro, Sintra",38.7822299,-9.3184729
402072,"Escola Secundária Luís de Freitas Branco, Paço de Arcos, Oeiras",38.6989143,-9.297763999999999
402084,"Escola Secundária do Lumiar, Lisboa",38.7697478,-9.161836
402114,"Escola Secundária Manuel Cargaleiro, Amora, Seixal",38.6162722,-9.1150073
402163,"Escola Secundária Marquês de Pombal, Lisboa",38.7004189,-9.1958726
402199,"Escola Secundária Matias Aires, Agualva, Sintra",38.7786671,-9.298135
402217,"Escola Secundária de Mem Martins, Sintra",38.783788,-9.3369609
402229,"Escola Secundária Miguel Torga, Monte Abraão, Sintra",38.7538756,-9.2690249
402242,"Escola Secundária de Miraflores, Algés, Oeiras",38.7097254,-9.2264065
402266,"Escola Básica e Secundária de Monte da Caparica, Almada",38.661346,-9.197825
402369,"Escola Básica e Secundária Padre Alberto Neto, Queluz, Sintra",38.7544826,-9.2526831
402436,"Escola Básica e Secundária Passos Manuel, Lisboa",38.7122013,-9.1499531
402450,"Escola Secundária Pedro Alexandrino, Póvoa de Santo Adrião, Odivelas",38.8052441,-9.1646801
402539,"Escola Secundária Poeta Joaquim Serra, Montijo",38.7017269,-8.9521132
402540,"Escola Secundária do Arco-Íris, Portela, Loures",38.7860711,-9.114303999999999
402606,"Escola Secundária da Quinta do Marquês, Oeiras",38.6984156,-9.324038
402631,"Escola Secundária Rainha Dona Leonor, Lisboa",38.7515048,-9.1410219
402679,"Escola Secundária do Restelo, Lisboa",38.7095565,-9.214377299999999
402710,"Escola Secundária Romeu Correia, Feijó, Almada",38.65052670000001,-9.163523399999999
402722,"Escola Secundária de Sampaio, Sesimbra",38.4724384,-9.0946043
402746,"Escola Básica e Secundária de Santo António, Barreiro",38.6321233,-9.037306500000001
402758,"Escola Secundária Sebastião da Gama, Setúbal",38.5273999,-8.891667
402760,"Escola Secundária Seomara da Costa Primo, Amadora",38.7600875,-9.2470632
402825,"Escola Secundária Stuart Carvalhais, Massamá, Sintra",38.7587852,-9.2771714
402965,"Escola Secundária Vergílio Ferreira, Lisboa",38.7603576,-9.1808947
402989,"Escola Básica e Secundária Lima de Freitas, Setúbal",38.52318,-8.9156111
403209,"Escola Secundária da Amora, Seixal",38.6290056,-9.120915
403210,Escola Secundária de Palmela,38.5711862,-8.9092044
403222,"Escola Secundária de Pinhal Novo, Palmela",38.6372837,-8.9122606
403234,"Escola Secundária da Baixa da Banheira, Vale da Amoreira, Moita",38.6450109,-9.040589599999999
403246,"Escola Secundária Augusto Cabrita, Barreiro",38.6578192,-9.058775599999999
403258,"Escola Básica e Secundária Professor Ruy Luís Gomes, Laranjeiro, Almada",38.6514584,-9.1474592
403260,"Escola Secundária Daniel Sampaio, Sobreda, Almada",38.6393546,-9.1812951
403477,"Escola Básica e Secundária de Mães d’Água, Falagueira, Amadora",38.7636917,-9.2246806
403489,"Escola Secundária Professor José Augusto Lucas, Linda-a-Velha, Oeiras",38.71161370000001,-9.235599299999999
403490,"Escola Secundária de Camarate, Loures",38.7923811,-9.1430863
403507,"Escola Secundária da Ramada, Odivelas",38.8026241,-9.183988099999999
403519,"Escola Secundária de Sacavém, Loures",38.7882313,-9.105899100000002
403532,"Escola Secundária José Cardoso Pires, Loures",38.81071439999999,-9.1746894
403544,"Escola Secundária de Caneças, Odivelas",38.7940287,-9.1794386
403556,"Escola Básica e Secundária de Carcavelos, Cascais",38.6988739,-9.3364891
403933,Escola Secundária de Alcochete,38.7474847,-8.963765
404019,"Escola Profissional Agrícola D. Dinis - Paiã, Odivelas",38.7712244,-9.2005872
404172,"Escola Artística António Arroio, Lisboa",38.7362849,-9.1274637
404226,Escola Artística do Instituto Gregoriano de Lisboa,38.7489663,-9.1503436
404238,"Escola Artística de Dança do Conservatório Nacional, Lisboa",38.7123178,-9.1473598
404240,"Escola Artística de Música do Conservatório Nacional, Lisboa",38.700701,-9.195894
404408,"Escola Secundária Rainha Dona Amélia, Lisboa",38.7020896,-9.188597
404433,"Escola Secundária Padre António Vieira, Lisboa",38.757826,-9.1360317
404652,"Escola Secundária Pedro Nunes, Lisboa",38.7164119,-9.1586021
404664,"Escola Secundária de São João da Talha, Loures",38.8233055,-9.0931874
501669,Externato Santo Adrião,38.8025955,-9.1592088
501700,Jardim Infantil O Palhaço Alegre,38.787095,-9.3223308
501724,Colégio de Alfragide,38.73672699999999,-9.2184036
501736,Jardim de Infância O Alicerce,38.7976166,-9.1916928
501748,"Externato ""Aljubarrota""",38.7563043,-9.238277
501773,Colégio José Álvaro Vidal,38.8936225,-9.0423144
501803,Externato Rainha Dona Amélia,38.7156121,-9.160989899999999
501815,Jardim de Infância Os Meus Amigos,38.7724623,-9.3104462
501839,Externato Miguel Ângelo,38.6884002,-9.3360152
501840,"Externato ""Anita""",38.7395407,-9.1559297
501852,Salesianos do Estoril – Escola,38.7042584,-9.4004511
501876,Externato Nossa Senhora da Apresentação,38.772592,-9.2960076
501888,Externato São Miguel Arcanjo,38.7791805,-9.115424599999999
501967,Jardim de Infância O Palhaço Azul,38.8155701,-9.224638299999999
501980,Externato O Balão Azul,38.6907823,-9.317174099999999
502005,Colégio da Bafureira,38.6885629,-9.3540318
502042,Externato O Barquinho,38.74755220000001,-9.1335909
502054,Jardim Infantil O Rei na Barriga,38.8204184,-9.1994543
502080,Externato Infantil e Primário O Beiral,38.7421833,-9.1968789
502108,Externato Santa Maria de Belém,38.6976547,-9.2189625
502110,"Jardim Infantil ""Beloquitas""",38.7057364,-9.1773806
502121,Colégio Manuel Bernardes,38.7712632,-9.1733496
502133,"Externato ""Alfa-Beta""",38.7160209,-9.2622989
502157,Colégio Os Bobocas,38.7481595,-9.281324999999999
502182,Jardim Escola O Bosque,38.766632,-9.1132825
502200,Colégio Galáxia Branca,38.7602097,-9.2677072
502261,"Externato ""Luso-Britânico""",38.75361729999999,-9.1372579
502273,Colégio de São João de Brito,38.7737778,-9.157872
502285,Jardim de Infância da Fundação Adolfo Vieira de Brito,38.75448919999999,-9.132460499999999
502303,Colégio Cachabiu,38.7003686,-9.4290775
502315,Jardim Infantil Caíque,38.724007,-9.262435199999999
502339,"Externato ""Calimero""",38.793219,-9.345913099999999
502340,Externato Flor do Campo,38.8086874,-9.1896366
502352,Externato Infantil A Candeia Encantada,38.7421227,-9.1347404
502376,Externato O Cantinho,38.690492,-9.3385224
502388,Colégio D. Maria II,38.7566289,-9.286845399999999
502406,"Externato ""O Caracol""",38.7690865,-9.2343584
502420,Colégio Marista de Carcavelos,38.6923294,-9.345075399999999
502467,Jardim Escola O Carrocel,38.7521697,-9.2051374
502534,CEBE - Cooperativa de Ensino de Benfica,38.7451422,-9.180663
502558,Academia de Música de Santa Cecília,38.7823478,-9.159307199999999
502583,Externato Marcelino Champagnat,38.7780304,-9.1264839
502625,"Externato ""Cinderela""",38.7488941,-9.2318295
502637,"Externato ""O Cisne""",38.7561267,-9.2454436
502649,"Colégio ""O Cocas""",38.9285958,-9.0116643
502650,Externato Os Coelhinhos,38.7602735,-9.2663978
502674,Colégio Colibri,38.7569136,-9.2821044
502716,Colégio Faz de Conta,38.7900096,-9.322744499999999
502741,"Externato ""O Lar da Criança""",38.7112642,-9.156889999999999
502777,Externato São Cristóvão,38.7506637,-9.203598
502832,Externato As Descobertas,38.7078229,-9.2070318
502856,Colégio Amor de Deus,38.7139516,-9.4188347
502870,Jardim Escola João De Deus - Estrela,38.7162864,-9.158090099999999
502881,Jardim Escola João De Deus - Alvalade,38.7559279,-9.1364012
502900,Externato Mãe de Deus,38.7286298,-9.1310881
502911,Colégio Bartolomeu Dias,38.8502982,-9.0800276
502923,Colégio Piloto Diese,38.760721,-9.1294769
502959,"Jardim Infantil ""O Girassol Dourado""",38.7572445,-9.2674246
502972,Éramos Um - Cooperativa de Ensino,38.7023575,-9.3620085
503010,Externato A Minha Escola,38.6966741,-9.294891699999999
503022,"Jardim Infantil ""A Nova Escola""",38.7971247,-9.351547600000002
503034,"Externato ""A Escolinha""",38.6973893,-9.224988
503060,"Externato ""Rainha D. Estefânea""",38.7525735,-9.2309731
503071,Escola Alemã do Estoril,38.70770539999999,-9.3931879
503101,Colégio Europa,38.7078159,-9.4344331
503162,Colégio D. Filipa,38.7480711,-9.2290925
503198,Externato Os Fofinhos,38.7385706,-9.1466476
503228,Externato de Nossa Senhora da Penha de França,38.7300835,-9.1298491
503230,"Externato ""Santa Francisca""",38.7325921,-9.1276123
503277,"Externato ""Roque Gameiro""",38.7397071,-9.136772299999999
503290,Colégio Quinta dos Girassóis,38.75683859999999,-9.28335
503356,Externato Paraíso Infantil,38.828674,-9.1686789
503368,IPS - International Preparatory School,38.7350389,-9.3843935
503381,Jardim Infantil Do Núcleo De Instrução E Beneficiência De Paço D´Arcos,38.694753,-9.294736
503400,Associação Escola 31 de Janeiro,38.6946147,-9.3554133
503435,"Externato Infantil ""O Nosso Jardim""",38.7098109,-9.151606100000002
503460,Escola de Santa Teresa do Menino Jesus,38.7170934,-9.152407199999999
503526,Colégio D. João VI,38.7577053,-9.2290478
503538,"Externato ""João XXIII""",38.7591429,-9.0982047
503551,"Jardim Infantil ""S.Jorge""",38.73713499999999,-9.2138318
503563,Colégio de São José - Ramalhão,38.7861334,-9.3730921
503575,Externato de S. José,38.7100076,-9.2157608
503587,Colégio Helen Keller,38.7128909,-9.2111766
503599,Colégio Quinta do Lago,38.7022595,-9.3376558
503629,Externato Florinda Leal,38.7026942,-9.3890412
503642,Lycée Français Charles Lepièrre,38.7242906,-9.1629094
503678,Cooperativa De Ensino Os Leõezinhos,38.8015434,-9.374320299999999
503680,Escola Alemã de Lisboa,38.7589417,-9.1634023
503708,Externato Marista de Lisboa,38.7474157,-9.181096799999999
503710,"Externato ""Santa Teresinha de Lisieux""",38.7388635,-9.1428642
503721,Escolinha da Tia Ló,38.714996,-9.446596
503733,Externato Jardim dos Lombos,38.6855143,-9.3261607
503769,Externato da Luz,38.7628759,-9.182029
503800,Externato A Sementinha Mágica,38.7676038,-9.3122594
503812,Colégio Cor e Magia,38.7737931,-9.2891599
503861,Externato Infantil e Primário Passos Manuel,38.727886,-9.136768199999999
503873,Creche e Jardim de Infância Marcolândia,38.7058276,-9.2263287
503885,Colégio do Sagrado Coração de Maria,38.7351975,-9.136573499999999
503897,Escola Ave-Maria,38.7053536,-9.180035799999999
503903,Externato Eduarda Maria,38.6900554,-9.3505611
503915,"Externato ""Marité""",38.7617789,-9.2374438
503964,Jardim de Infância Mimá,38.7950762,-9.150263899999999
503990,"Externato ""Sá de Miranda""",38.7305595,-9.138995999999999
504014,"Externato ""Modelo""",38.7500905,-9.2232848
504026,Colégio Moderno,38.752738,-9.153415899999999
504117,Externato O Nial,38.8040911,-9.3411136
504178,"Escola ""Pedro Nunes""",38.7158285,-9.1633405
504180,Externato Nova Oeiras,38.6920614,-9.3194594
504210,Jardim Escola João De Deus - Olivais,38.7666529,-9.1227777
504221,Escola do Grémio De Instrução Liberal De Campo De Ourique,38.7180063,-9.1616657
504257,Externato A Palmeirinha,38.6900805,-9.327048300000001
504270,Colégio O Papião,38.697185,-9.3758041
504282,Colégio Herdeiros do Futuro,38.7863639,-9.3475036
504294,Externato do Parque,38.7253347,-9.1572944
504312,Jardim de Infância Mãe Patinha,38.9286123,-9.242561499999999
504336,Externato Liceal Das Casas De S. Vicente De Paulo,38.7599086,-9.151737899999999
504361,Externato Nossa Senhora da Paz,38.7633546,-9.2369994
504373,Externato das Pedralvas,38.7558204,-9.2052186
504385,"Jardim Infantil ""Pedrita""-Associação de Pais e Técnicos",38.7496699,-9.1938257
504440,"Jardim Infantil ""Pestalozzi""",38.7530627,-9.1540888
504464,Externato Pica-Pau,38.804215,-9.1935349
504476,"Jardim Infantil ""O Caracol Pimpão""",38.7605125,-9.2412228
504488,Externato PIM PAM PUM,38.767176,-9.163666
504520,"Externato ""O Pinóquio""",38.7580814,-9.2670563
504555,Externato Fernão Mendes Pinto,38.74529980000001,-9.1809125
504580,Colégio Planalto,38.767903,-9.1666007
504592,Colégio dos Plátanos,38.7891056,-9.3217457
504610,"Externato ""O Poeta""",38.7643192,-9.1568322
504622,Jardim Infantil O Pónei,38.7976166,-9.1916928
504646,Externato Primário N.º 4 De Educação Popular,38.7119319,-9.1437463
504737,Nova Escola João de Deus Ramos,38.7358734,-9.148057699999999
504804,Externato Escola da Restauração,38.7284503,-9.1332867
504816,"Jardim Infantil ""O Rezingão""",38.7599603,-9.2673931
504828,Colégio Mira Rio,38.7593802,-9.1644764
504853,Jardim de Infância Azul e Rosa,38.8165957,-9.12224
504877,Externato Nossa Senhora do Rosário,38.7019896,-9.438102899999999
504907,Colégio O Pinheiro Sabichão,38.8702265,-9.3546445
504919,"Jardim Infantil ""Os Brincalhões""",38.7962773,-9.3461766
504920,Colégio A Sandrinha,38.78496150000001,-9.2154056
504932,Jardim Infantil Rosa e Azul da Fonte Santa,38.8410354,-9.1942413
504956,Associação Popular Ribeiro dos Santos,38.7275137,-9.134691499999999
504968,Boa Ventura Montessori Nursery School,38.6950867,-9.3716437
504981,Queen Elizabeths School,38.7520651,-9.134809299999999
505006,Saint Dominic´s International School,38.7131893,-9.330049599999999
505020,Externato D. Luísa Sigea,38.7053425,-9.3942807
505043,Externato Jardim do Sol,38.7942717,-9.1944128
505079,Colégio do Bom Sucesso,38.6952788,-9.2116396
505080,Colégio Luso-Suíço,38.7149611,-9.1550253
505092,Jardim de Infância da Associação Pessoal do Instituto Superior Técnico,38.7365005,-9.1371965
505122,"Jardim Infantil ""Os Amiguinhos Terlu""",38.7981942,-9.348989399999999
505134,"Jardim Infantil ""A Ternurinha""",38.8120099,-9.3711023
505158,Externato A Nova Toca,38.6988846,-9.354070799999999
505160,Cooperativa A Torre,38.6994917,-9.2104663
505195,Colégio Valsassina,38.7557017,-9.1260917
505201,"Externato ""Grão Vasco""",38.7499059,-9.2033671
505213,Colégio Cesário Verde,38.7520814,-9.1036103
505249,"Externato ""Padre António Vieira""",38.71094360000001,-9.2424048
505250,Jardim Infantil Bela Vista,38.7792526,-9.229387599999999
505262,"Externato ""O Viveirinho""",38.7610498,-9.2357696
505274,"Escola ""S. Francisco Xavier""",38.6978161,-9.2193481
506898,"Externato ""Abelhinha""",38.6476362,-9.2389768
506941,Colégio O Cantinho dos Amigos,38.6323051,-9.097980999999999
506953,"Externato Primário ""Santa Ana""",38.5297188,-8.8864883
506965,Externato O Pátio das Andorinhas,38.604063,-9.184016999999999
506977,Externato de Santo António,38.6032984,-9.1656149
507027,"Externato ""O Barquinho""",38.67839499999999,-9.1532672
507040,Colégio Beija Flor,38.640034,-9.1001718
507076,Jardim Infantil O Coala,38.6475873,-9.1830857
507118,"Jardim Infantil ""Bichinho de Conta""",38.593088,-9.0475657
507131,"Externato ""Guia da Criança""",38.6329496,-9.1702224
507143,Colégio O Mundo da Criança,38.6404004,-8.8904578
507192,"O Cantinho da Brincadeira, Creche Infantil Lda",38.65332739999999,-9.148660099999999
507222,Atrium 7,38.655937,-9.1561817
507234,"Externato ""Jardim em Flor""",38.6168471,-9.095346
507246,Colégio Campo de Flores,38.6470928,-9.2015602
507260,Externato O Golfinho,38.6458161,-9.2407551
507271,Externato Os Grilinhos,38.6115457,-9.1882386
507283,Jardim De Infância Da Unidade Integrada De Atendimento À Distância,38.4687915,-9.093135799999999
507301,Externato O Início,38.6646755,-9.076324999999999
507325,"Externato ""As Joaninhas""",38.6310755,-9.115840799999999
507337,Colégio Espaço Júnior,38.6308115,-9.1375947
507398,Externato O Sossego da Mamã,38.6517313,-9.2014663
507416,Externato O Marujinho,38.6114772,-9.0911875
507465,Colégio Minerva - Espaço Casquilhos,38.6516244,-9.06045
507507,"Andorinha Nova Infantário, Lda.",38.525244,-8.8770668
507532,"Jardim Infantil ""Palhacinho""",39.478072,-8.5404429
507568,Jardim Infantil Os Dois Patinhos,38.655178,-9.1634303
507647,"Jardim de Infância O Remendinho, Lda",38.5550813,-9.0212948
507660,Externato Rosarinho,38.6000265,-9.0918743
507684,"Externato ""Rainha Santa""",38.6457077,-9.1861898
507696,Externato Rainha Santa (Secção),38.6297637,-9.183311699999999
507702,Saint Peters International School,38.57969190000001,-8.887212
507751,"Externato ""Frei Luís de Sousa""",38.6799937,-9.155007999999999
507763,Jardim Infantil Casinha das Surpresas,38.6179164,-9.1148175
507775,"Colégio Um, Dó, Li,Tá",38.6335188,-9.1940505
507787,"Externato Tim Tim, Lda",38.6560434,-9.173128199999999
507799,Academia de Música e Belas-Artes Luísa Todi,38.5260369,-8.8952871
507829,Colégio do Vale,38.6011329,-9.1822192
507830,Externato Espaço Verde,38.708179,-8.9861077
507854,Externato Vivafesta,38.6131161,-9.1248296
508410,Colónia Infantil da Educação Popular,38.7025075,-9.3926731
508433,Jardim de Infância Do Centro Social Paroquial de Nossa Senhora da Ajuda,38.7066206,-9.1991895
508445,Escola Privativa n.º 6 de A Voz do Operário,38.7056881,-9.1991278
508457,Externato Prim. Associação Pró-Infancia Stº António De Lisboa,38.723762,-9.1350573
508494,Associação Ester Janz,38.7507029,-9.104271599999999
508500,Jardim De Infância Do Patronato Cristo-Rei,38.710063,-9.160512299999999
508536,Escola Privativa n.º 1 de A Voz do Operário,38.715592,-9.1291551
508548,Jardim De Infância Da Associação Luiz Pereira Da Motta,38.83228709999999,-9.177988899999999
511316,Externato Nossa Senhora da Assunção,38.700437,-9.42396
511365,Infantário Cooperativo De Campo De Ourique,38.7140981,-9.1613676
516119,Jardim de Infância do Centro Social Paroquial Imaculado Coração de Maria,38.7333303,-9.220275899999999
516120,Jardim De Infância Roda Viva,38.7392585,-9.219328299999999
516132,Associação De Solidariedade De Alfragide - Assoalfra,38.7384299,-9.2114949
516144,Jardim De Infância Do Centro Social Paroquial De Alfornelos,38.7635073,-9.2053911
516156,Jardim de Infância do Centro Social Paroquial da Brandoa,38.7669996,-9.2196521
516168,Centro Infantil de São Gerardo - Centro Social Paroquial Nossa Senhora Mãe De Deus Da Buraca,38.741634,-9.209788099999999
516170,Centro São Francisco de Assis - Santa Casa da Misericórdia da Amadora,38.7323672,-9.2132765
516200,Jardim de Infância do Casal Popular da Damaia - Associação de Solidariedade Social Vencer,38.7452159,-9.2246341
516211,Jardim de Infância do Centro Social 6 de Maio,38.7503128,-9.213255
516235,Jardim de Infância Unidinhos,38.7821114,-9.2228278
516272,Jardim De Infância Da Associação Pais E Amigos Das Crianças Da Freguesia Da Mina,38.7715592,-9.2503769
516284,Jardim De Infância Julieta Pimenta - Santa Casa Da Misericórdia De Oeiras,38.7539218,-9.2301664
516429,Creche Marcelina Teodoro Dos Santos - Santa Casa Da Misericórdia De Cascais,38.711851,-9.4205045
516442,Jardim de Infância do Centro Social Paroquial São Vicente de Alcabideche - Bairro Calouste Gulbenkian,38.7458637,-9.3895167
516491,Creche Arneiro - Santa Casa Da Misericórdia De Cascais,38.7252549,-9.3737312
516533,Jardim De Infância Do Centro Paroquial De São Pedro E São João Do Estoril,38.6996231,-9.3795161
516545,Creche O Pinhal - Santa Casa Da Misericórdia De Cascais,38.6985489,-9.419163
516569,Jardim De Infância Do Centro Social Paroquial De São Vicente De Alcabideche - Alvide,38.7126333,-9.4248902
516594,Jardim Infantil Branca De Neve - Das Irmãs Da Misericórdia,38.6917133,-9.362485999999999
516612,CEIDE - Centro de Educação e Desenvolvimento,38.7133931,-9.3487964
516636,Jardim De Infância Do Centro Social Da Paróquia De Nossa Senhora Da Conceição De Abóboda,38.7375383,-9.312737499999999
516648,Jardim De Infância Do Centro Social Paroquial De São Domingos De Rana,38.7034408,-9.3412805
516650,Jardim de Infância da Associação de Proteção à Infância Da Ajuda - APIA,38.7079633,-9.1957095
516661,Jardim de Infância da Associação Actividades Sociais do Bairro 2 de Maio,39.1964112,-9.062417199999999
516673,Centro Cultural E Recreativo Crianças Cruzeiro Rio Seco,38.7064838,-9.1890098
516685,Creche - Jardim Infantil De Santo Amaro,38.7043466,-9.1853882
516727,Infantário de Nossa Senhora da Purificação,38.7466741,-9.1426608
516739,Jardim de Infância da Associação Vida Cristã Filadélfia,38.7910832,-9.1409186
516740,Jardim Infantil da Freguesia dos Anjos,38.724213,-9.1371877
516764,Centro Social E Paroquial Nª.Senhora Do Amparo,38.7511487,-9.2024244
516806,Jardim Infantil João Paulo II,38.7486887,-9.151826
516831,Jardim Infantil Do Centro Social Paroq. S. Vicente Paulo,38.7300043,-9.174235999999999
516843,Casa Da Criança - Centro Social E Paroquial De Santo António Campolide,38.7322742,-9.1619954
516880,Jardim de Infância do Centro Social Paroquial de Carnide,38.7600391,-9.1913757
516909,Jardim de Infância do Centro de Assistência Socia Infantil da Charneca do Lumiar,38.7833778,-9.143611
516910,Jardim de Infância do Centro Social Paroquial Nossa Senhora da Encarnação,38.7174142,-9.146990299999999
516922,Casa da Infância De Calafates - Fundação Dom Pedro Iv,38.7134836,-9.1444671
516934,Jardim De Infância Da Casa Da Infância De São Vicente - Fundação Dom Pedro IV,38.7162785,-9.1294468
516958,Jardim de Infância da Fundação Maria do Carmo Roque Pereira,38.7207024,-9.130073699999999
516960,Obra Das Crianças Da Freguesia Da Lapa,38.7122106,-9.156807299999999
516971,Jardim De Infância Do Centro Social Do Sagrado Coração De Jesus - Secção,38.7083107,-9.161598
516995,Jardim De Infância Da Obra Social Paulo VI,38.7610525,-9.153588400000002
517008,Jardim de Infância da Associação Popular do Lumiar,38.7751258,-9.1624378
517045,Jardim de Infância da ADECO,38.7149411,-9.1491454
517069,Casa da Infância de Santana - Fundação Dom Pedro IV,38.7193937,-9.1400387
517070,Jardim Infantil Do Centro Social Paroquial Da Pena,38.7174962,-9.1390349
517082,Jardim Infantil-Associação Da Penha De França,38.7261136,-9.124748499999999
517094,Jardim de Infância do Centro Social Paroquial Nossa Senhora da Penha de França,38.7274765,-9.1266775
517136,Jardim Infantil Da Associação Stª Engrácia De Lisboa,38.7196465,-9.1208549
517150,Jardim De Infância Da Casa Da Infância De Santa Quitéria - Fundação Dom Pedro Iv,38.7690067,-9.1066258
517161,Abrigo Infantil de Santa Maria de Belém - Centro Paroquial Santa Maria de Belém,38.6982623,-9.204432899999999
517185,Jardim De Infância Da Casa Da Infância Dos Olivais - Fundação Dom Pedro Iv,38.7690067,-9.1066258
517240,Jardim de Infância do Centro Social José Luís Coelho,38.7172896,-9.173123799999999
517252,Escola Nossa Senhora Do Patrocínio - Assistência Infantil Freguesia Santa Isabel,38.7129232,-9.1649461
517264,Jardim de Infância do Centro Paroquial de Bem Estar Social de Alfama,38.7118486,-9.1285168
517288,Casa Pastorinhos de Fátima - Creche e Jardim de Infância da Assistência Paroquial Santos-O-Velho,38.7061232,-9.158879299999999
517306,Jardim de Infância da APROS - Associação de Educação e Promoção Social,38.7479359,-9.1779502
517318,Jardim de Infância do Centro Paroquial São Domingos de Benfica,38.7416798,-9.173318199999999
517320,Associação Infante De Sagres,38.7474371,-9.1656268
517331,Jardim De Infância Do Centro Social E Paroquial Do Calhariz De Benfica,38.7488253,-9.1866024
517355,Centro Social Paroquial S. João De Brito,38.7554269,-9.137955999999999
517367,Jardim de Infância da Casa do Menino Deus,38.7445554,-9.1323516
517380,Casa da Infância de Arroios - Fundação Dom Pedro IV,38.7334474,-9.1397959
517392,Jardim de Infância do Centro Social da Paróquia de São Sebastião da Pedreira,38.7322599,-9.1511356
517446,Jardim De Infância Do Centro Social Paroquial Nuno Álvares Pereira De São Tiago De Camarate - Centro Comunitário De Loureiras,38.8018708,-9.1282529
517460,O Reguila - Associação Moradores de Santo António dos Cavaleiros,38.8104092,-9.1632923
517471,Jardim De Infância Da Associação Dr. João Dos Santos,38.8343996,-9.1905127
517483,Jardim Infantil da Associação Vida Abundante,38.776734,-9.1048862
517501,Jardim Infantil Do Centro Social Paroquial de Moscavide,38.7796234,-9.1033671
517513,Jardim Infantil Da Associação De Solidariedade Social Dos Moradores Do Bairro Das Patameiras,38.78342749999999,-9.186081
517537,Jardim Infantil Popular Da Pontinha,38.7650011,-9.1984216
517549,Jardim de Infância Fundação Obra de Nossa Senhora da Purificação,38.7808033,-9.1143354
517550,Instituto Português De Pedagogia Infantil,38.79765,-9.164414899999999
517574,Jardim De Infância Da Associação Comunitária Infantil E Juvenil Da Ramada,38.8018021,-9.180955299999999
517604,Jardim De Infância O Saltarico - Associação Pró-Infância,38.8109718,-9.1668452
517616,Jardim De Infância Do Centro Popular Infantil Nascer Do Sol,38.803684,-9.0990742
517689,Jardim de Infância do Centro Social da Ericeira,38.9666211,-9.4180364
517720,Jardim De Infância O Palhaço - Santa Casa Da Misericórdia De Oeiras,38.7174224,-9.2441196
517732,Jardim Infantil Novo Pinóquio (Stª Cª:M.O),38.7007653,-9.2334826
517744,Jardim De Infância Do Centro Da Sagrada Família De Algés,38.7060986,-9.2246518
517768,Centro Social E Paroquial De Barcarena - Jardim De Infância Da Quinta Da Politeira,38.7313959,-9.277976299999999
517770,Centro Social E Paroquial De Barcarena - Centro De Infância De Tercena,38.745661,-9.2817563
517793,Jardim de Infância 1.º De Maio - Santa Casa da Misericórdia de Oeiras,38.7032041,-9.2923903
517811,Jardim de Infância do Centro Social Paroquial Nossa Senhora do Cabo de Linda-a-Velha,38.7130476,-9.240576299999999
517823,Jardim Infantil Nossa Senhora Das Graças,38.7079621,-9.2239705
517859,Jardim de Infância Bambi - Santa Casa da Misericórdia de Oeiras,38.7008807,-9.2404066
517860,Jardim De Infância Do Centro Social Paroquial Nossa Senhora Da Conceição De Outurela,38.7239285,-9.2240589
517884,Centro Infantil Traquinas - Santa Casa Misericórdia De Oeiras,38.7032041,-9.2923903
517896,Creche e Jardim De Infância Nossa Senhora Do Acolhimento - Obra Social Madre Maria Clara,38.7080687,-9.2715638
517914,Jardim De Infância O Chorão - Santa Casa Da Misericórdia De Oeiras,38.7032041,-9.2923903
517926,Jardim de Infância Tão Balalão - Santa Casa Da Misericórdia De Oeiras,38.7164593,-9.2996007
517940,Jardim Infantil Santo Amaro - Centro Social Paroquial De Oeiras,38.6893292,-9.3102582
517963,Jardim De Infância Nossa Senhora do Rosário De Fátima - Santa Casa Da Misericórdia De Oeiras,38.6906519,-9.3275502
517975,Jardim De Infância Pingolé - Santa Casa Da Misericórdia De Oeiras,38.7179661,-9.2916363
517999,Infantário Popular de Paço de Arcos,38.6968274,-9.289977499999999
518001,Externato Nossa Senhora Das Dores,38.706315,-9.2755269
518013,Jardim de Infância Santa Ana - Santa Casa da Misericórdia de Oeiras,38.7032041,-9.2923903
518037,Creche e Jardim de Infância Madre Maria Clara - Obra Social Madre Maria Clara,38.7171384,-9.254048599999999
518050,Jardim Infantil do Centro Social e Paroquial de Mira Sintra,38.7707394,-9.3129455
518062,Jardim De Infância Do Centro De Apoio À Criança - Sede,38.7859893,-9.3048077
518074,Jardim De Infância Do Centro Social E Paroquial Do Cacém,38.7707394,-9.3129455
518104,Jardim de Infância Popular,38.7690097,-9.3000206
518116,A Creche Sempre Em Flor - São Carlos,38.7854418,-9.3463152
518128,Jardim De Infância Do Centro Social Da Quinta Da Boa Vista,38.7980971,-9.310859299999999
518130,Centro Comunitário Da Xetaria,38.7686788,-9.2735031
518141,Jardim de Infância António Pinheiro Pinto Basto - Centro De Assistência Social De Belas,38.7791473,-9.2633317
518165,Jardim Infantil do Centro Social Paroquial de Colares - Almoçageme,38.8054749,-9.439264699999999
518189,Jardim Infantil Do Centro Social Paroquial de Colares,38.7995291,-9.446823799999999
518190,Jardim De Infância Sol Dourado - Centro De Bem Estar Social De Queluz,38.7555953,-9.252065199999999
518207,Creche E Jardim Infantil O Caracol,38.7544547,-9.2630986
518219,Infantário Do Povo De Massamá,38.7542531,-9.286855899999999
518232,Associação Promotora Da Criança,38.7708282,-9.3230215
518256,Creche Popular De Rio De Mouro,38.7654515,-9.3229297
518268,Escola Do Povo Das Mercês,38.7894121,-9.3324474
518293,Infantário Popular De Sintra,38.7994496,-9.375843699999999
518311,Associação De Solidariedade Social Os Patarecos,38.8185353,-9.395977
518426,Jardim de Infância da Associação de Promoção Social de Alhandra,38.9288052,-9.0152843
518440,Jardim De Infância Centro De Apoio Social Do Bom Sucesso E Arcena,38.9056706,-9.0425305
518451,Jardim De Infância Associação De Promoção Social Castanheira Do Ribatejo,38.9891124,-8.971870299999999
518463,Jardim De Infância Do Centro Social Paroquial Casa De São José,39.0079254,-8.965199199999999
518499,Jardim De Infância Da Associação De Solidariedade Social De Apoio À Família,38.8759281,-9.0547203
518505,Jardim de Infância do Instituto De Apoio À Comunidade - Bloco J,38.8718618,-9.058876699999999
518529,Jardim Infantil Da Associação Popular De Apoio À Criança - Caniços,38.8663056,-9.0616881
518566,Jardim de Infância Da Associação Para O Bem-Estar Infantil da Freguesia de Vialonga - Sede,38.8748145,-9.0854608
518578,Jardim Infantil da Casa do Povo de Vialonga,38.8796049,-9.066102299999999
518608,Jardim de Infância do Centro de Bem-Estar Infantil de Vila Franca de Xira,38.9560642,-8.9909017
519030,Jardim Infantil Bento Gonçalves (Aipica),38.6683591,-9.1647649
519042,Jardim Infantil Do Pombal (Aipica),38.6763193,-9.160334899999999
519066,Jardim De Infância Do Centro Paroquial De Bem Estar Social De Cacilhas,38.6871927,-9.150263400000002
519078,Jardim De Infância Do Centro Social E Paroquial De Vale Figueira,38.6384518,-9.177967899999999
519080,Centro Da Actividades E Tempos Livres Do Raposo (Aipica),38.6665643,-9.1883511
519108,Jardim De Infância Do Centro Comunitário Da Cova Da Piedade/Laranjeiro - Centro Social Paroquial Padre Ricardo Gameiro,38.6706122,-9.1651774
519121,C. Comunitário Promoção Soc. Feijó E Laranjeiro,38.6555164,-9.160708999999999
519145,Jardim de Infância do Centro Social Paroquial de Almada,38.680224,-9.157794899999999
519157,Jardim Infantil Popular Do Pragal (Aipica),38.6760874,-9.1685781
519169,Jardim de Infância do Centro Social e Paroquial Cristo Rei,38.6664294,-9.184346699999999
519170,Creche E Jardim De Infância Da Liberdade (Aipica),38.675005,-9.1668659
519224,Associação de Solidariedade Social - Creche e Jardim de Infância Os Reguilas - Quinta da Lomba,38.64761499999999,-9.062152400000002
519285,Jardim de Infância O Comboio,38.6566178,-9.075325699999999
519297,Jardim de Infância do Centro Social Paroquial de São Lourenço de Alhos Vedros,38.6486422,-9.022138499999999
519303,Creche E Jardim Infantil O Charlot (S.C.M.Alhos Vedros),38.6557385,-9.021420899999999
519315,Jardim Infantil O Varino (S.C.M.Alhos Vedros),38.6457778,-8.9896984
519327,Jardim de Infância O Ninho,38.65470980000001,-8.9919235
519340,Jardim de Infância da Sagrada Família - Casa do Povo de Canha,38.768353,-8.6263012
519352,Jardim Infantil Casa da Criança,38.709385,-8.974756
519364,Jardim de Infância do Centro de Acção Social e Cultural das Faias,38.7107894,-8.990788799999999
519388,O Girassol - Escola Padre Manuel Gonçalves,38.7084462,-8.9738145
519390,Jardim de Infância O Saltitão,38.7049454,-8.968024699999999
519406,Jardim de Infância da Associação de Solidariedade Social Brejos do Assa - Rouxinol,38.5696285,-8.8386176
519418,"União Sol Crescente da Marateca ""Os Cenourinhas""",38.5859812,-8.6908677
519420,Jardim de Infância A Árvore - Centro Social De Palmela,38.567755,-8.9027827
519431,Casa Do Povo De Palmela - Centro Social De Lagameças,38.6135078,-8.7805319
519455,Jardim Das Cores - Centro Social Paroquial De Pinhal Novo,38.6303849,-8.916713
519479,Jardim De Infância A Cegonha - Centro Social De Palmela,38.567755,-8.9027827
519480,Jardim De Infância Do Centro Social Da Quinta Do Anjo,38.5672396,-8.9393992
519509,Jardim Infantil C. Assist. Paroquial O Caracol,38.6179164,-9.1148175
519510,Centro Infantil O Patronato (Centro Assist.Paroq. Da Amora),38.6285472,-9.115772399999999
519522,"C. Paroq. B. Estar Social De Arrentela - Jardim Infantil ""O Picapau""",38.6382942,-9.0963608
519546,CERCIZIMBRA - Cooperativa de Educação e Reabilitação de Cidadãos Inadaptados de Sesimbra,38.4687915,-9.093135799999999
519558,Jardim Infantil C. Paroq. Bem-Estar Social Castelo,38.4577894,-9.1061684
519571,Jardim De Infância Centro De Apoio Sócio Cultural - Unidade Zambujalense,38.4511403,-9.1287071
519595,Centro Infantil Sebastião Da Gama - Casa Do Povo De Azeitão,38.5160863,-9.0166249
519637,Jardim de Infância da Associação de Moradores da Praça do Brasil - O Girassol,38.5291708,-8.886859
519662,Infantário Popular Do Bonfim (Associação Setub. Apoio Social),38.5278433,-8.8888701
519686,Os Pirilampos (Associação Central Assist. De Setúbal),38.5269886,-8.883061699999999
519698,"Associação De Moradores Luta Do Povo ""Os Pinheirinhos""",38.5338171,-8.8802034
519716,Centro Infantil Qt. Nova,38.5221666,-8.8703842
519728,Centro Infantil Da Cotovia Do Centro Social Paroquial De S. José,38.6266449,-9.193554599999999
519730,"Associação Para O Jardim De Infância ""O Sonho""",38.52246150000001,-8.8611753
519741,Escorrega - Associação De Moradores Do Bº Da Liberdade,38.5287251,-8.866205899999999
519753,Jardim Infantil Associação Cristã Da Mocidade-Bela Vista,38.5239284,-8.871070099999999
519777,"Jardim Infantil ""O Cogumelo"" (Cáritas Diocesana)",38.52571030000001,-8.859951299999999
519789,Jardim De Infância O Baloiço,38.5273502,-8.8728356
519790,Jardim de Infância A Abelhinha - Centro Social Paroquial São José,38.5371258,-8.8704032
519807,"Jardim Infantil ""O Sol"" (Cáritas Diocesana)",38.5205461,-8.869838099999999
521747,Jardim de Infância Do Centro Social E Paroquial Nossa Senhora Da Atalaia,38.7049398,-8.9287457
521759,Jardim de Infância O Papagaio - Centro Paroquial de Acção Social Padre Manuel Gonçalves,38.7107894,-8.990788799999999
521772,Centro de Ocupação Infantil - Fundação Coi,38.6355832,-8.9100985
521838,Jardim Infantil O Aquário (Centro Social Paroquial Nossa Senhora Da Anunciada),38.5220826,-8.896602099999999
521942,Escola Luis Madureira (Stª Casa Misericórdia Da Amadora),38.7328984,-9.2124352
522028,Jardim de Infância Gente Pequena,38.7981346,-9.343633299999999
522053,Centro Cultural E Social De Stº António Dos Cavaleiros,38.8121262,-9.1595014
522119,Escola Raiz,38.699118,-9.2138774
522120,Real Colégio de Portugal,38.7731643,-9.1720731
522132,"Externato ""Infante D. Pedro""",38.7385706,-9.1466476
522790,Jardim de Infância Bem-Me-Quer,38.8120099,-9.3711023
522806,Jardim de Infância Toca e Fica,38.778543,-9.2974778
522818,Colégio a Nova Formiguinha,38.7916653,-9.370616799999999
523112,Nuclisol Jean Piaget - Galinheiras,38.7919091,-9.1507951
523124,Jardim de Infância Laranja e Meia,38.746855,-9.1688251
523150,Jardim de Infância Canteiro dos Sonhos,38.7484922,-9.2822716
523379,Colégio Guadalupe,38.5863727,-9.1598235
523835,Academia de Amadores de Música,38.712265,-9.142377999999999
523859,Conservatório de Música da Metropolitana,38.6992968,-9.181663799999999
523860,Conservatório de Música D. Dinis,38.8031788,-9.1629125
523872,Conservatório Regional Silva Marques,38.9271658,-9.0060904
523884,Conservatório de Música de Sintra,38.7654661,-9.3199733
523902,Escola de Música Nossa Senhora do Cabo - Sede,38.7129791,-9.2406509
523914,Academia Musical dos Amigos das Crianças,38.7073912,-9.1498932
523926,Instituto de Música Vitorino Matono,38.7319772,-9.1284117
524219,Conservatório Regional de Palmela,38.5708713,-8.900883799999999
524220,Conservatório Regional de Setúbal,38.5346328,-8.8931724
524300,Academia de Dança Contemporânea de Setúbal,38.5212453,-8.8461575
524311,Escola de Dança Ana Mangericão,38.6947257,-9.3498377
600015,Centro de Educação e Desenvolvimento Jacob Rodrigues Pereira (Casa Pia),38.6985608,-9.2097746
601378,"Jardim de Infância Luísa Ducla Soares, Algés, Oeiras",38.7074224,-9.2260175
601408,"Jardim de Infância de Alhandra, Vila Franca de Xira",38.9748151,-8.9827636
602048,"Jardim de Infância n.º 2 de Alverca do Ribatejo, Vila Franca de Xira",38.9529029,-8.9918475
602190,"Jardim de Infância da Ameixoeira, Lisboa",38.780793,-9.1589001
602279,"Jardim de Infância da Quinta da Princesa, Cruz de Pau, Seixal",38.6337323,-9.1391372
604057,"Jardim de Infância Roque Gameiro, Odivelas",38.7940904,-9.1753384
604070,"Jardim de Infância do Bairro Padre Cruz, Lisboa",38.768716,-9.1900312
604501,"Jardim de Infância n.º 1 do Alto do Seixalinho, Barreiro",38.6569698,-9.0607927
604550,"Jardim de Infância do Barril, Mafra",38.9404409,-9.338221599999999
605013,"Jardim de Infância n.º 1 de Benfica, Lisboa",38.7474882,-9.1966541
605396,"Jardim de Infância da Bobadela, Loures",38.8067552,-9.099145
605517,"Jardim de Infância do Bom Sucesso, Alverca do Ribatejo, Vila Franca de Xira",38.9043579,-9.044905
608464,"Jardim de Infância n.º 1 de Casal de Cambra, Sintra",38.802501,-9.232725499999999
611980,"Jardim de Infância da Encarnação, Mafra",39.0363865,-9.369341
613022,"Jardim de Infância do Feijó, Almada",38.6765398,-9.1651154
614385,"Jardim de Infância de Frielas, Loures",38.8448564,-9.1621886
615614,"Jardim de Infância da Horta Nova, Lisboa",38.7656731,-9.182
619176,Jardim de Infância de Mafra,38.9404409,-9.338221599999999
619450,"Jardim de Infância da Manjoeira, Loures",38.8639492,-9.161224400000002
619504,"Jardim de Infância de Marco Cabaço, Charneca de Caparica, Almada",38.6193387,-9.1925163
620373,"Jardim de Infância do Milharado, Mafra",38.9410377,-9.3368091
622280,"Jardim de Infância Álvaro de Campos, Odivelas",38.7948754,-9.1726218
622291,"Jardim de Infância Dr. João dos Santos, Odivelas",38.7976355,-9.1903609
623702,"Jardim de Infância Almirante Nunes da Matta, Parede, Cascais",38.7189208,-9.3507368
624410,"Jardim de Infância de Pegões Velhos, Montijo",38.6865571,-8.6606749
626132,"Jardim de Infância de Povos, Vila Franca de Xira",38.9748151,-8.9827636
627781,"Jardim de Infância de Ribamar, Mafra",38.9404409,-9.338221599999999
628700,"Jardim de Infância da Quinta de São José, Sacavém, Loures",38.79760479999999,-9.1242847
628979,"Jardim de Infância do Samouco, Alcochete",38.7239847,-9.0029117
630214,"Jardim de Infância de Santo Isidoro, Mafra",38.9936643,-9.3956042
630299,"Jardim de Infância de Sarilhos Grandes, Montijo",38.7088488,-8.974369099999999
630305,"Jardim de Infância de Sarilhos Pequenos, Moita",38.6809716,-8.9839751
631115,"Jardim de Infância de Amoreiras, Setúbal",38.5397534,-8.8939311
633537,"Jardim de Infância de Telheiras, Lisboa",38.7602726,-9.1702148
633665,"Jardim de Infância da Terrugem, Sintra",38.849342,-9.379190099999999
635560,"Jardim de Infância da Venda do Pinheiro, Mafra",38.9223546,-9.2354471
635807,"Jardim de Infância de Vialonga, Vila Franca de Xira",38.8748145,-9.0854608
636502,Jardim de Infância n.º 2 de Vila Franca de Xira,38.9529029,-8.9918475
638079,"Jardim de Infância José Martins, Linda-a-Velha, Oeiras",38.710421,-9.241576799999999
639825,"Jardim de Infância Gil Eanes, Pontinha, Odivelas",38.76902010000001,-9.198176499999999
639862,"Jardim de Infância do Calhandriz, Vila Franca de Xira",38.9529029,-8.9918475
639928,"Jardim de Infância n.º 2 de Verderena, Barreiro",38.6548665,-9.0729723
